{"network": "1.0.0.0/24", "city": "Sydney", "region": "New South Wales", "region_code": "NSW", "country": "Australia", "country_code": "AU", "continent": "Oceania", "continent_code": "OC", "latitude": -33.86785, "longitude": 151.20732, "timezone": "Australia/Sydney", "postal_code": "1001"}
{"network": "1.0.1.0/24", "city": "Xiamen", "region": "Fujian", "region_code": "FJ", "country": "China", "country_code": "CN", "continent": "Asia", "continent_code": "AS", "latitude": 24.47979, "longitude": 118.08187, "timezone": "Asia/Shanghai", "postal_code": "361000"}
{"network": "1.0.2.0/23", "city": "Xiamen", "region": "Fujian", "region_code": "FJ", "country": "China", "country_code": "CN", "continent": "Asia", "continent_code": "AS", "latitude": 24.47979, "longitude": 118.08187, "timezone": "Asia/Shanghai", "postal_code": "361000"}
{"network": "1.0.4.0/24", "city": "Gol Gol", "region": "New South Wales", "region_code": "NSW", "country": "Australia", "country_code": "AU", "continent": "Oceania", "continent_code": "OC", "latitude": -34.17877, "longitude": 142.22149, "timezone": "Australia/Sydney", "postal_code": "2738"}
{"network": "1.0.5.0/24", "city": "Melbourne", "region": "Victoria", "region_code": "VIC", "country": "Australia", "country_code": "AU", "continent": "Oceania", "continent_code": "OC", "latitude": -37.814, "longitude": 144.96332, "timezone": "Australia/Melbourne", "postal_code": "3000"}
{"network": "1.0.6.0/25", "city": "Melbourne", "region": "Victoria", "region_code": "VIC", "country": "Australia", "country_code": "AU", "continent": "Oceania", "continent_code": "OC", "latitude": -37.814, "longitude": 144.96332, "timezone": "Australia/Melbourne", "postal_code": "3000"}
{"network": "1.0.6.128/26", "city": "Melbourne", "region": "Victoria", "region_code": "VIC", "country": "Australia", "country_code": "AU", "continent": "Oceania", "continent_code": "OC", "latitude": -37.814, "longitude": 144.96332, "timezone": "Australia/Melbourne", "postal_code": "3000"}
{"network": "1.0.6.192/27", "city": "Melbourne", "region": "Victoria", "region_code": "VIC", "country": "Australia", "country_code": "AU", "continent": "Oceania", "continent_code": "OC", "latitude": -37.814, "longitude": 144.96332, "timezone": "Australia/Melbourne", "postal_code": "3000"}
{"network": "1.0.6.224/28", "city": "Melbourne", "region": "Victoria", "region_code": "VIC", "country": "Australia", "country_code": "AU", "continent": "Oceania", "continent_code": "OC", "latitude": -37.814, "longitude": 144.96332, "timezone": "Australia/Melbourne", "postal_code": "3000"}
{"network": "1.0.6.240/29", "city": "Melbourne", "region": "Victoria", "region_code": "VIC", "country": "Australia", "country_code": "AU", "continent": "Oceania", "continent_code": "OC", "latitude": -37.814, "longitude": 144.96332, "timezone": "Australia/Melbourne", "postal_code": "3000"}
{"network": "1.0.6.248/30", "city": "Melbourne", "region": "Victoria", "region_code": "VIC", "country": "Australia", "country_code": "AU", "continent": "Oceania", "continent_code": "OC", "latitude": -37.814, "longitude": 144.96332, "timezone": "Australia/Melbourne", "postal_code": "3000"}
{"network": "1.0.6.252/30", "city": "St Albans", "region": "Victoria", "region_code": "VIC", "country": "Australia", "country_code": "AU", "continent": "Oceania", "continent_code": "OC", "latitude": -37.74496, "longitude": 144.80049, "timezone": "Australia/Melbourne", "postal_code": "3021"}
{"network": "1.0.7.0/25", "city": "Melbourne", "region": "Victoria", "region_code": "VIC", "country": "Australia", "country_code": "AU", "continent": "Oceania", "continent_code": "OC", "latitude": -37.814, "longitude": 144.96332, "timezone": "Australia/Melbourne", "postal_code": "3000"}
{"network": "1.0.7.128/26", "city": "Melbourne", "region": "Victoria", "region_code": "VIC", "country": "Australia", "country_code": "AU", "continent": "Oceania", "continent_code": "OC", "latitude": -37.814, "longitude": 144.96332, "timezone": "Australia/Melbourne", "postal_code": "3000"}
{"network": "1.0.7.192/27", "city": "Melbourne", "region": "Victoria", "region_code": "VIC", "country": "Australia", "country_code": "AU", "continent": "Oceania", "continent_code": "OC", "latitude": -37.814, "longitude": 144.96332, "timezone": "Australia/Melbourne", "postal_code": "3000"}
{"network": "1.0.7.224/28", "city": "Melbourne", "region": "Victoria", "region_code": "VIC", "country": "Australia", "country_code": "AU", "continent": "Oceania", "continent_code": "OC", "latitude": -37.814, "longitude": 144.96332, "timezone": "Australia/Melbourne", "postal_code": "3000"}
{"network": "1.0.7.240/31", "city": "Melbourne", "region": "Victoria", "region_code": "VIC", "country": "Australia", "country_code": "AU", "continent": "Oceania", "continent_code": "OC", "latitude": -37.814, "longitude": 144.96332, "timezone": "Australia/Melbourne", "postal_code": "3000"}
{"network": "1.0.7.242", "city": "Frankston East", "region": "Victoria", "region_code": "VIC", "country": "Australia", "country_code": "AU", "continent": "Oceania", "continent_code": "OC", "latitude": -38.13333, "longitude": 145.13333, "timezone": "Australia/Melbourne", "postal_code": "3199"}
{"network": "1.0.7.243", "city": "Melbourne", "region": "Victoria", "region_code": "VIC", "country": "Australia", "country_code": "AU", "continent": "Oceania", "continent_code": "OC", "latitude": -37.814, "longitude": 144.96332, "timezone": "Australia/Melbourne", "postal_code": "3000"}
{"network": "1.0.7.244/30", "city": "Melbourne", "region": "Victoria", "region_code": "VIC", "country": "Australia", "country_code": "AU", "continent": "Oceania", "continent_code": "OC", "latitude": -37.814, "longitude": 144.96332, "timezone": "Australia/Melbourne", "postal_code": "3000"}
{"network": "1.0.7.248", "city": "Melbourne", "region": "Victoria", "region_code": "VIC", "country": "Australia", "country_code": "AU", "continent": "Oceania", "continent_code": "OC", "latitude": -37.814, "longitude": 144.96332, "timezone": "Australia/Melbourne", "postal_code": "3000"}
{"network": "1.0.7.249", "city": "Frankston East", "region": "Victoria", "region_code": "VIC", "country": "Australia", "country_code": "AU", "continent": "Oceania", "continent_code": "OC", "latitude": -38.13333, "longitude": 145.13333, "timezone": "Australia/Melbourne", "postal_code": "3199"}
{"network": "1.0.7.250/31", "city": "Melbourne", "region": "Victoria", "region_code": "VIC", "country": "Australia", "country_code": "AU", "continent": "Oceania", "continent_code": "OC", "latitude": -37.814, "longitude": 144.96332, "timezone": "Australia/Melbourne", "postal_code": "3000"}
{"network": "1.0.7.252/30", "city": "Melbourne", "region": "Victoria", "region_code": "VIC", "country": "Australia", "country_code": "AU", "continent": "Oceania", "continent_code": "OC", "latitude": -37.814, "longitude": 144.96332, "timezone": "Australia/Melbourne", "postal_code": "3000"}
{"network": "1.0.8.0/21", "city": "Shenzhen", "region": "Guangdong", "region_code": "GD", "country": "China", "country_code": "CN", "continent": "Asia", "continent_code": "AS", "latitude": 22.54554, "longitude": 114.0683, "timezone": "Asia/Shanghai", "postal_code": "518000"}
{"network": "1.0.16.0/29", "city": "Gotemba", "region": "Shizuoka", "region_code": "22", "country": "Japan", "country_code": "JP", "continent": "Asia", "continent_code": "AS", "latitude": 35.31859, "longitude": 138.94343, "timezone": "Asia/Tokyo", "postal_code": "412-0028"}
{"network": "1.0.16.8/31", "city": "Gotemba", "region": "Shizuoka", "region_code": "22", "country": "Japan", "country_code": "JP", "continent": "Asia", "continent_code": "AS", "latitude": 35.31859, "longitude": 138.94343, "timezone": "Asia/Tokyo", "postal_code": "412-0028"}
{"network": "1.0.16.10", "city": "Tokyo", "region": "Tokyo", "region_code": "13", "country": "Japan", "country_code": "JP", "continent": "Asia", "continent_code": "AS", "latitude": 35.6895, "longitude": 139.69171, "timezone": "Asia/Tokyo", "postal_code": "101-8656"}
{"network": "1.0.16.11", "city": "Gotemba", "region": "Shizuoka", "region_code": "22", "country": "Japan", "country_code": "JP", "continent": "Asia", "continent_code": "AS", "latitude": 35.31859, "longitude": 138.94343, "timezone": "Asia/Tokyo", "postal_code": "412-0028"}
{"network": "1.0.16.12/30", "city": "Gotemba", "region": "Shizuoka", "region_code": "22", "country": "Japan", "country_code": "JP", "continent": "Asia", "continent_code": "AS", "latitude": 35.31859, "longitude": 138.94343, "timezone": "Asia/Tokyo", "postal_code": "412-0028"}
{"network": "1.0.16.16/28", "city": "Gotemba", "region": "Shizuoka", "region_code": "22", "country": "Japan", "country_code": "JP", "continent": "Asia", "continent_code": "AS", "latitude": 35.31859, "longitude": 138.94343, "timezone": "Asia/Tokyo", "postal_code": "412-0028"}
{"network": "1.0.16.32/27", "city": "Gotemba", "region": "Shizuoka", "region_code": "22", "country": "Japan", "country_code": "JP", "continent": "Asia", "continent_code": "AS", "latitude": 35.31859, "longitude": 138.94343, "timezone": "Asia/Tokyo", "postal_code": "412-0028"}
{"network": "1.0.16.64/26", "city": "Gotemba", "region": "Shizuoka", "region_code": "22", "country": "Japan", "country_code": "JP", "continent": "Asia", "continent_code": "AS", "latitude": 35.31859, "longitude": 138.94343, "timezone": "Asia/Tokyo", "postal_code": "412-0028"}
{"network": "1.0.16.128/28", "city": "Gotemba", "region": "Shizuoka", "region_code": "22", "country": "Japan", "country_code": "JP", "continent": "Asia", "continent_code": "AS", "latitude": 35.31859, "longitude": 138.94343, "timezone": "Asia/Tokyo", "postal_code": "412-0028"}
{"network": "1.0.16.144/28", "city": "Fuji", "region": "Shizuoka", "region_code": "22", "country": "Japan", "country_code": "JP", "continent": "Asia", "continent_code": "AS", "latitude": 35.16667, "longitude": 138.68333, "timezone": "Asia/Tokyo", "postal_code": "417-0025"}
{"network": "1.0.16.160/27", "city": "Gotemba", "region": "Shizuoka", "region_code": "22", "country": "Japan", "country_code": "JP", "continent": "Asia", "continent_code": "AS", "latitude": 35.31859, "longitude": 138.94343, "timezone": "Asia/Tokyo", "postal_code": "412-0028"}
{"network": "1.0.16.192/26", "city": "Gotemba", "region": "Shizuoka", "region_code": "22", "country": "Japan", "country_code": "JP", "continent": "Asia", "continent_code": "AS", "latitude": 35.31859, "longitude": 138.94343, "timezone": "Asia/Tokyo", "postal_code": "412-0028"}
{"network": "1.0.17.0/24", "city": "Asagaya-minami", "region": "Tokyo", "region_code": "13", "country": "Japan", "country_code": "JP", "continent": "Asia", "continent_code": "AS", "latitude": 35.70206, "longitude": 139.63745, "timezone": "Asia/Tokyo", "postal_code": "166-0000"}
{"network": "1.0.18.0/23", "city": "Asagaya-minami", "region": "Tokyo", "region_code": "13", "country": "Japan", "country_code": "JP", "continent": "Asia", "continent_code": "AS", "latitude": 35.70206, "longitude": 139.63745, "timezone": "Asia/Tokyo", "postal_code": "166-0000"}
{"network": "1.0.20.0/22", "city": "Asagaya-minami", "region": "Tokyo", "region_code": "13", "country": "Japan", "country_code": "JP", "continent": "Asia", "continent_code": "AS", "latitude": 35.70206, "longitude": 139.63745, "timezone": "Asia/Tokyo", "postal_code": "166-0000"}
{"network": "1.0.24.0/21", "city": "Asagaya-minami", "region": "Tokyo", "region_code": "13", "country": "Japan", "country_code": "JP", "continent": "Asia", "continent_code": "AS", "latitude": 35.70206, "longitude": 139.63745, "timezone": "Asia/Tokyo", "postal_code": "166-0000"}
{"network": "1.0.32.0/19", "city": "Shenzhen", "region": "Guangdong", "region_code": "GD", "country": "China", "country_code": "CN", "continent": "Asia", "continent_code": "AS", "latitude": 22.54554, "longitude": 114.0683, "timezone": "Asia/Shanghai", "postal_code": "518000"}
{"network": "1.0.64.0/24", "city": "Iwakuni", "region": "Yamaguchi", "region_code": "35", "country": "Japan", "country_code": "JP", "continent": "Asia", "continent_code": "AS", "latitude": 34.16297, "longitude": 132.22, "timezone": "Asia/Tokyo", "postal_code": "741-0062"}
{"network": "1.0.65.0/27", "city": "Hiroshima", "region": "Hiroshima", "region_code": "34", "country": "Japan", "country_code": "JP", "continent": "Asia", "continent_code": "AS", "latitude": 34.4, "longitude": 132.45, "timezone": "Asia/Tokyo", "postal_code": "730-0011"}
{"network": "1.0.65.32/29", "city": "Hiroshima", "region": "Hiroshima", "region_code": "34", "country": "Japan", "country_code": "JP", "continent": "Asia", "continent_code": "AS", "latitude": 34.4, "longitude": 132.45, "timezone": "Asia/Tokyo", "postal_code": "730-0011"}
{"network": "1.0.65.40/30", "city": "Hiroshima", "region": "Hiroshima", "region_code": "34", "country": "Japan", "country_code": "JP", "continent": "Asia", "continent_code": "AS", "latitude": 34.4, "longitude": 132.45, "timezone": "Asia/Tokyo", "postal_code": "730-0011"}
{"network": "1.0.65.44/30", "city": "Kaitaichi", "region": "Hiroshima", "region_code": "34", "country": "Japan", "country_code": "JP", "continent": "Asia", "continent_code": "AS", "latitude": 34.36667, "longitude": 132.53333, "timezone": "Asia/Tokyo", "postal_code": "736-0026"}
{"network": "1.0.65.48/30", "city": "Hatsukaichi", "region": "Hiroshima", "region_code": "34", "country": "Japan", "country_code": "JP", "continent": "Asia", "continent_code": "AS", "latitude": 34.35, "longitude": 132.33333, "timezone": "Asia/Tokyo", "postal_code": "738-0013"}
{"network": "1.0.65.52/30", "city": "Hiroshima", "region": "Hiroshima", "region_code": "34", "country": "Japan", "country_code": "JP", "continent": "Asia", "continent_code": "AS", "latitude": 34.4, "longitude": 132.45, "timezone": "Asia/Tokyo", "postal_code": "730-0011"}
{"network": "1.0.65.56/29", "city": "Hiroshima", "region": "Hiroshima", "region_code": "34", "country": "Japan", "country_code": "JP", "continent": "Asia", "continent_code": "AS", "latitude": 34.4, "longitude": 132.45, "timezone": "Asia/Tokyo", "postal_code": "730-0011"}
{"network": "1.0.65.64/30", "city": "Hiroshima", "region": "Hiroshima", "region_code": "34", "country": "Japan", "country_code": "JP", "continent": "Asia", "continent_code": "AS", "latitude": 34.4, "longitude": 132.45, "timezone": "Asia/Tokyo", "postal_code": "730-0011"}
{"network": "1.0.65.68/30", "city": "Sakata", "region": "Yamagata", "region_code": "06", "country": "Japan", "country_code": "JP", "continent": "Asia", "continent_code": "AS", "latitude": 38.91667, "longitude": 139.855, "timezone": "Asia/Tokyo", "postal_code": "998-0021"}
{"network": "1.0.65.72/29", "city": "Hiroshima", "region": "Hiroshima", "region_code": "34", "country": "Japan", "country_code": "JP", "continent": "Asia", "continent_code": "AS", "latitude": 34.4, "longitude": 132.45, "timezone": "Asia/Tokyo", "postal_code": "730-0011"}
{"network": "1.0.65.80/28", "city": "Hiroshima", "region": "Hiroshima", "region_code": "34", "country": "Japan", "country_code": "JP", "continent": "Asia", "continent_code": "AS", "latitude": 34.4, "longitude": 132.45, "timezone": "Asia/Tokyo", "postal_code": "730-0011"}
{"network": "1.0.65.96/28", "city": "Hiroshima", "region": "Hiroshima", "region_code": "34", "country": "Japan", "country_code": "JP", "continent": "Asia", "continent_code": "AS", "latitude": 34.4, "longitude": 132.45, "timezone": "Asia/Tokyo", "postal_code": "730-0011"}
{"network": "1.0.65.112/31", "city": "Hiroshima", "region": "Hiroshima", "region_code": "34", "country": "Japan", "country_code": "JP", "continent": "Asia", "continent_code": "AS", "latitude": 34.4, "longitude": 132.45, "timezone": "Asia/Tokyo", "postal_code": "730-0011"}
{"network": "1.0.65.114/31", "city": "Yamanashi", "region": "Yamanashi", "region_code": "19", "country": "Japan", "country_code": "JP", "continent": "Asia", "continent_code": "AS", "latitude": 35.67152, "longitude": 138.69827, "timezone": "Asia/Tokyo", "postal_code": "405-0021"}
{"network": "1.0.65.116/30", "city": "Hiroshima", "region": "Hiroshima", "region_code": "34", "country": "Japan", "country_code": "JP", "continent": "Asia", "continent_code": "AS", "latitude": 34.4, "longitude": 132.45, "timezone": "Asia/Tokyo", "postal_code": "730-0011"}
{"network": "1.0.65.120/29", "city": "Hiroshima", "region": "Hiroshima", "region_code": "34", "country": "Japan", "country_code": "JP", "continent": "Asia", "continent_code": "AS", "latitude": 34.4, "longitude": 132.45, "timezone": "Asia/Tokyo", "postal_code": "730-0011"}
{"network": "1.0.65.128/27", "city": "Hiroshima", "region": "Hiroshima", "region_code": "34", "country": "Japan", "country_code": "JP", "continent": "Asia", "continent_code": "AS", "latitude": 34.4, "longitude": 132.45, "timezone": "Asia/Tokyo", "postal_code": "730-0011"}
{"network": "1.0.65.160/30", "city": "Hatsukaichi", "region": "Hiroshima", "region_code": "34", "country": "Japan", "country_code": "JP", "continent": "Asia", "continent_code": "AS", "latitude": 34.35, "longitude": 132.33333, "timezone": "Asia/Tokyo", "postal_code": "738-0013"}
{"network": "1.0.65.164/30", "city": "Kumano", "region": "Hiroshima", "region_code": "34", "country": "Japan", "country_code": "JP", "continent": "Asia", "continent_code": "AS", "latitude": 34.33284, "longitude": 132.56967, "timezone": "Asia/Tokyo", "postal_code": "731-4200"}
{"network": "1.0.65.168/29", "city": "Hiroshima", "region": "Hiroshima", "region_code": "34", "country": "Japan", "country_code": "JP", "continent": "Asia", "continent_code": "AS", "latitude": 34.4, "longitude": 132.45, "timezone": "Asia/Tokyo", "postal_code": "730-0011"}
{"network": "1.0.65.176/28", "city": "Hiroshima", "region": "Hiroshima", "region_code": "34", "country": "Japan", "country_code": "JP", "continent": "Asia", "continent_code": "AS", "latitude": 34.4, "longitude": 132.45, "timezone": "Asia/Tokyo", "postal_code": "730-0011"}
{"network": "1.0.65.192/28", "city": "Hiroshima", "region": "Hiroshima", "region_code": "34", "country": "Japan", "country_code": "JP", "continent": "Asia", "continent_code": "AS", "latitude": 34.4, "longitude": 132.45, "timezone": "Asia/Tokyo", "postal_code": "730-0011"}
{"network": "1.0.65.208/30", "city": "Hiroshima", "region": "Hiroshima", "region_code": "34", "country": "Japan", "country_code": "JP", "continent": "Asia", "continent_code": "AS", "latitude": 34.4, "longitude": 132.45, "timezone": "Asia/Tokyo", "postal_code": "730-0011"}
{"network": "1.0.65.212", "city": "Hiroshima", "region": "Hiroshima", "region_code": "34", "country": "Japan", "country_code": "JP", "continent": "Asia", "continent_code": "AS", "latitude": 34.4, "longitude": 132.45, "timezone": "Asia/Tokyo", "postal_code": "730-0011"}
{"network": "1.0.65.213", "city": "Kurashiki", "region": "Okayama", "region_code": "33", "country": "Japan", "country_code": "JP", "continent": "Asia", "continent_code": "AS", "latitude": 34.58333, "longitude": 133.76667, "timezone": "Asia/Tokyo", "postal_code": "710-0824"}
{"network": "1.0.65.214/31", "city": "Hiroshima", "region": "Hiroshima", "region_code": "34", "country": "Japan", "country_code": "JP", "continent": "Asia", "continent_code": "AS", "latitude": 34.4, "longitude": 132.45, "timezone": "Asia/Tokyo", "postal_code": "730-0011"}
{"network": "1.0.65.216/29", "city": "Hiroshima", "region": "Hiroshima", "region_code": "34", "country": "Japan", "country_code": "JP", "continent": "Asia", "continent_code": "AS", "latitude": 34.4, "longitude": 132.45, "timezone": "Asia/Tokyo", "postal_code": "730-0011"}
{"network": "1.0.65.224/28", "city": "Hiroshima", "region": "Hiroshima", "region_code": "34", "country": "Japan", "country_code": "JP", "continent": "Asia", "continent_code": "AS", "latitude": 34.4, "longitude": 132.45, "timezone": "Asia/Tokyo", "postal_code": "730-0011"}
{"network": "1.0.65.240/31", "city": "Hiroshima", "region": "Hiroshima", "region_code": "34", "country": "Japan", "country_code": "JP", "continent": "Asia", "continent_code": "AS", "latitude": 34.4, "longitude": 132.45, "timezone": "Asia/Tokyo", "postal_code": "730-0011"}
{"network": "1.0.65.242/31", "city": "Hatsukaichi", "region": "Hiroshima", "region_code": "34", "country": "Japan", "country_code": "JP", "continent": "Asia", "continent_code": "AS", "latitude": 34.35, "longitude": 132.33333, "timezone": "Asia/Tokyo", "postal_code": "738-0013"}
{"network": "1.0.65.244/30", "city": "Hiroshima", "region": "Hiroshima", "region_code": "34", "country": "Japan", "country_code": "JP", "continent": "Asia", "continent_code": "AS", "latitude": 34.4, "longitude": 132.45, "timezone": "Asia/Tokyo", "postal_code": "730-0011"}
{"network": "1.0.65.248/29", "city": "Hiroshima", "region": "Hiroshima", "region_code": "34", "country": "Japan", "country_code": "JP", "continent": "Asia", "continent_code": "AS", "latitude": 34.4, "longitude": 132.45, "timezone": "Asia/Tokyo", "postal_code": "730-0011"}
{"network": "1.0.66.0/27", "city": "Hiroshima", "region": "Hiroshima", "region_code": "34", "country": "Japan", "country_code": "JP", "continent": "Asia", "continent_code": "AS", "latitude": 34.4, "longitude": 132.45, "timezone": "Asia/Tokyo", "postal_code": "730-0011"}
{"network": "1.0.66.32/30", "city": "Hiroshima", "region": "Hiroshima", "region_code": "34", "country": "Japan", "country_code": "JP", "continent": "Asia", "continent_code": "AS", "latitude": 34.4, "longitude": 132.45, "timezone": "Asia/Tokyo", "postal_code": "730-0011"}
{"network": "1.0.66.36/31", "city": "Hiroshima", "region": "Hiroshima", "region_code": "34", "country": "Japan", "country_code": "JP", "continent": "Asia", "continent_code": "AS", "latitude": 34.4, "longitude": 132.45, "timezone": "Asia/Tokyo", "postal_code": "730-0011"}
{"network": "1.0.66.38/31", "city": "Sasayama", "region": "Hyōgo", "region_code": "28", "country": "Japan", "country_code": "JP", "continent": "Asia", "continent_code": "AS", "latitude": 35.06667, "longitude": 135.21667, "timezone": "Asia/Tokyo", "postal_code": "669-2324"}
{"network": "1.0.66.40", "city": "Chichibu", "region": "Saitama", "region_code": "11", "country": "Japan", "country_code": "JP", "continent": "Asia", "continent_code": "AS", "latitude": 35.99028, "longitude": 139.07639, "timezone": "Asia/Tokyo", "postal_code": "368-0033"}
{"network": "1.0.66.41", "city": "Hiroshima", "region": "Hiroshima", "region_code": "34", "country": "Japan", "country_code": "JP", "continent": "Asia", "continent_code": "AS", "latitude": 34.4, "longitude": 132.45, "timezone": "Asia/Tokyo", "postal_code": "730-0011"}
{"network": "1.0.66.42/31", "city": "Hiroshima", "region": "Hiroshima", "region_code": "34", "country": "Japan", "country_code": "JP", "continent": "Asia", "continent_code": "AS", "latitude": 34.4, "longitude": 132.45, "timezone": "Asia/Tokyo", "postal_code": "730-0011"}
{"network": "1.0.66.44/30", "city": "Hiroshima", "region": "Hiroshima", "region_code": "34", "country": "Japan", "country_code": "JP", "continent": "Asia", "continent_code": "AS", "latitude": 34.4, "longitude": 132.45, "timezone": "Asia/Tokyo", "postal_code": "730-0011"}
{"network": "1.0.66.48/28", "city": "Hiroshima", "region": "Hiroshima", "region_code": "34", "country": "Japan", "country_code": "JP", "continent": "Asia", "continent_code": "AS", "latitude": 34.4, "longitude": 132.45, "timezone": "Asia/Tokyo", "postal_code": "730-0011"}
{"network": "1.0.66.64/27", "city": "Hiroshima", "region": "Hiroshima", "region_code": "34", "country": "Japan", "country_code": "JP", "continent": "Asia", "continent_code": "AS", "latitude": 34.4, "longitude": 132.45, "timezone": "Asia/Tokyo", "postal_code": "730-0011"}
{"network": "1.0.66.96/30", "city": "Suzuka", "region": "Mie", "region_code": "24", "country": "Japan", "country_code": "JP", "continent": "Asia", "continent_code": "AS", "latitude": 34.88333, "longitude": 136.58333, "timezone": "Asia/Tokyo", "postal_code": "513-0034"}
{"network": "1.0.66.100/30", "city": "Hiroshima", "region": "Hiroshima", "region_code": "34", "country": "Japan", "country_code": "JP", "continent": "Asia", "continent_code": "AS", "latitude": 34.4, "longitude": 132.45, "timezone": "Asia/Tokyo", "postal_code": "730-0011"}
{"network": "1.0.66.104/29", "city": "Hiroshima", "region": "Hiroshima", "region_code": "34", "country": "Japan", "country_code": "JP", "continent": "Asia", "continent_code": "AS", "latitude": 34.4, "longitude": 132.45, "timezone": "Asia/Tokyo", "postal_code": "730-0011"}
{"network": "1.0.66.112/28", "city": "Hiroshima", "region": "Hiroshima", "region_code": "34", "country": "Japan", "country_code": "JP", "continent": "Asia", "continent_code": "AS", "latitude": 34.4, "longitude": 132.45, "timezone": "Asia/Tokyo", "postal_code": "730-0011"}
{"network": "1.0.66.128/29", "city": "Hiroshima", "region": "Hiroshima", "region_code": "34", "country": "Japan", "country_code": "JP", "continent": "Asia", "continent_code": "AS", "latitude": 34.4, "longitude": 132.45, "timezone": "Asia/Tokyo", "postal_code": "730-0011"}
{"network": "1.0.66.136/29", "city": "Tsuyama", "region": "Okayama", "region_code": "33", "country": "Japan", "country_code": "JP", "continent": "Asia", "continent_code": "AS", "latitude": 35.05215, "longitude": 133.99885, "timezone": "Asia/Tokyo", "postal_code": "708-0023"}
{"network": "1.0.66.144/31", "city": "Saki", "region": "Mie", "region_code": "24", "country": "Japan", "country_code": "JP", "continent": "Asia", "continent_code": "AS", "latitude": 34.29776, "longitude": 136.39308, "timezone": "Asia/Tokyo", "postal_code": "519-2802"}
{"network": "1.0.66.146/31", "city": "Hiroshima", "region": "Hiroshima", "region_code": "34", "country": "Japan", "country_code": "JP", "continent": "Asia", "continent_code": "AS", "latitude": 34.4, "longitude": 132.45, "timezone": "Asia/Tokyo", "postal_code": "730-0011"}
{"network": "1.0.66.148/30", "city": "Hiroshima", "region": "Hiroshima", "region_code": "34", "country": "Japan", "country_code": "JP", "continent": "Asia", "continent_code": "AS", "latitude": 34.4, "longitude": 132.45, "timezone": "Asia/Tokyo", "postal_code": "730-0011"}
{"network": "1.0.66.152/29", "city": "Hiroshima", "region": "Hiroshima", "region_code": "34", "country": "Japan", "country_code": "JP", "continent": "Asia", "continent_code": "AS", "latitude": 34.4, "longitude": 132.45, "timezone": "Asia/Tokyo", "postal_code": "730-0011"}
{"network": "1.0.66.160/30", "city": "Hiroshima", "region": "Hiroshima", "region_code": "34", "country": "Japan", "country_code": "JP", "continent": "Asia", "continent_code": "AS", "latitude": 34.4, "longitude": 132.45, "timezone": "Asia/Tokyo", "postal_code": "730-0011"}
{"network": "1.0.66.164/30", "city": "Tokorozawa", "region": "Saitama", "region_code": "11", "country": "Japan", "country_code": "JP", "continent": "Asia", "continent_code": "AS", "latitude": 35.79916, "longitude": 139.46903, "timezone": "Asia/Tokyo", "postal_code": "359-0000"}
{"network": "1.0.66.168/29", "city": "Hiroshima", "region": "Hiroshima", "region_code": "34", "country": "Japan", "country_code": "JP", "continent": "Asia", "continent_code": "AS", "latitude": 34.4, "longitude": 132.45, "timezone": "Asia/Tokyo", "postal_code": "730-0011"}
{"network": "1.0.66.176/28", "city": "Hiroshima", "region": "Hiroshima", "region_code": "34", "country": "Japan", "country_code": "JP", "continent": "Asia", "continent_code": "AS", "latitude": 34.4, "longitude": 132.45, "timezone": "Asia/Tokyo", "postal_code": "730-0011"}
{"network": "1.0.66.192/30", "city": "Aomori", "region": "Aomori", "region_code": "02", "country": "Japan", "country_code": "JP", "continent": "Asia", "continent_code": "AS", "latitude": 40.81667, "longitude": 140.73333, "timezone": "Asia/Tokyo", "postal_code": "030-0844"}
