{"network": "90.201.188.128/29", "city": "Ellesmere Port Town", "region": "England", "region_code": "ENG", "country": "United Kingdom", "country_code": "GB", "continent": "Europe", "continent_code": "EU", "latitude": "53.27875", "longitude": "-2.90134", "timezone": "Europe/London", "postal_code": "CH2"}
{"network": "2409:4061:211a:6d00::/56", "city": "Kh\u0101tra", "region": "West Bengal", "region_code": "WB", "country": "India", "country_code": "IN", "continent": "Asia", "continent_code": "AS", "latitude": "22.97617", "longitude": "86.85462", "timezone": "Asia/Kolkata", "postal_code": "722140"}
{"network": "49.231.168.128/25", "city": "Bangkok", "region": "Bangkok", "region_code": "10", "country": "Thailand", "country_code": "TH", "continent": "Asia", "continent_code": "AS", "latitude": "13.75398", "longitude": "100.50144", "timezone": "Asia/Bangkok", "postal_code": "10200"}
{"network": "240e:350:65ce:a300::/56", "city": "Foshan", "region": "Guangdong", "region_code": "GD", "country": "China", "country_code": "CN", "continent": "Asia", "continent_code": "AS", "latitude": "23.02677", "longitude": "113.13148", "timezone": "Asia/Shanghai", "postal_code": "528000"}
{"network": "216.106.203.44/30", "city": "Brookings", "region": "South Dakota", "region_code": "SD", "country": "United States", "country_code": "US", "continent": "North America", "continent_code": "NA", "latitude": "44.31136", "longitude": "-96.79839", "timezone": "America/Chicago", "postal_code": "57006"}
{"network": "126.204.28.108/31", "city": "Ebara", "region": "Tokyo", "region_code": "13", "country": "Japan", "country_code": "JP", "continent": "Asia", "continent_code": "AS", "latitude": "35.65", "longitude": "139.7333", "timezone": "Asia/Tokyo", "postal_code": "105-0022"}
{"network": "2a03:7500:9:d0c0::/58", "city": "Homberg", "region": "Hesse", "region_code": "HE", "country": "Germany", "country_code": "DE", "continent": "Europe", "continent_code": "EU", "latitude": "51.02994", "longitude": "9.40261", "timezone": "Europe/Berlin", "postal_code": "34574"}
{"network": "1.9.244.74", "city": "Shah Alam", "region": "Selangor", "region_code": "10", "country": "Malaysia", "country_code": "MY", "continent": "Asia", "continent_code": "AS", "latitude": "3.08507", "longitude": "101.53281", "timezone": "Asia/Kuala_Lumpur", "postal_code": "40100"}
{"network": "74.102.199.0/24", "city": "Spring Lake Heights", "region": "New Jersey", "region_code": "NJ", "country": "United States", "country_code": "US", "continent": "North America", "continent_code": "NA", "latitude": "40.152", "longitude": "-74.039", "timezone": "America/New_York", "postal_code": "07762"}
{"network": "2003:e8:17ff:2a09::/64", "city": "Bonn", "region": "North Rhine-Westphalia", "region_code": "NW", "country": "Germany", "country_code": "DE", "continent": "Europe", "continent_code": "EU", "latitude": "50.73438", "longitude": "7.09549", "timezone": "Europe/Berlin", "postal_code": "53111"}
{"network": "195.67.23.128/25", "city": "Nacka", "region": "Stockholm", "region_code": "AB", "country": "Sweden", "country_code": "SE", "continent": "Europe", "continent_code": "EU", "latitude": "59.31053", "longitude": "18.16372", "timezone": "Europe/Stockholm", "postal_code": "131 00"}
{"network": "2a0e:41a:f2ac:2000::/51", "city": "Brescia", "region": "Lombardy", "region_code": "25", "country": "Italy", "country_code": "IT", "continent": "Europe", "continent_code": "EU", "latitude": "45.53558", "longitude": "10.21472", "timezone": "Europe/Rome", "postal_code": "25100"}
{"network": "73.74.160.56/29", "city": "Lockport", "region": "Illinois", "region_code": "IL", "country": "United States", "country_code": "US", "continent": "North America", "continent_code": "NA", "latitude": "41.58948", "longitude": "-88.05784", "timezone": "America/Chicago", "postal_code": "60441"}
{"network": "182.75.235.30/31", "city": "Chennai", "region": "Tamil Nadu", "region_code": "TN", "country": "India", "country_code": "IN", "continent": "Asia", "continent_code": "AS", "latitude": "13.08784", "longitude": "80.27847", "timezone": "Asia/Kolkata", "postal_code": "600001"}
{"network": "70.48.12.20/31", "city": "Waterloo", "region": "Ontario", "region_code": "ON", "country": "Canada", "country_code": "CA", "continent": "North America", "continent_code": "NA", "latitude": "43.4668", "longitude": "-80.51639", "timezone": "America/Toronto", "postal_code": "N2H"}
{"network": "2804:14c4:fe5e:200::/55", "city": "Almenara", "region": "Minas Gerais", "region_code": "MG", "country": "Brazil", "country_code": "BR", "continent": "South America", "continent_code": "SA", "latitude": "-16.18361", "longitude": "-40.69444", "timezone": "America/Sao_Paulo", "postal_code": "39900-000"}
{"network": "99.231.135.180/30", "city": "Pickering", "region": "Ontario", "region_code": "ON", "country": "Canada", "country_code": "CA", "continent": "North America", "continent_code": "NA", "latitude": "43.90012", "longitude": "-79.13289", "timezone": "America/Toronto", "postal_code": "L0H"}
{"network": "2a02:121e:1d77:10::/60", "city": "Z\u00fcrich", "region": "Zurich", "region_code": "ZH", "country": "Switzerland", "country_code": "CH", "continent": "Europe", "continent_code": "EU", "latitude": "47.36667", "longitude": "8.55", "timezone": "Europe/Zurich", "postal_code": "8000"}
{"network": "2a02:8386:4::/46", "city": "Vienna", "region": "Vienna", "region_code": "9", "country": "Austria", "country_code": "AT", "continent": "Europe", "continent_code": "EU", "latitude": "48.1981", "longitude": "16.3948", "timezone": "Europe/Vienna", "postal_code": "1030"}
{"network": "2804:f74:c1c9:7800::/54", "city": "S\u00e3o Paulo", "region": "S\u00e3o Paulo", "region_code": "SP", "country": "Brazil", "country_code": "BR", "continent": "South America", "continent_code": "SA", "latitude": "-23.5475", "longitude": "-46.63611", "timezone": "America/Sao_Paulo", "postal_code": "01000-000"}
{"network": "2602:41:66f2:8000::/50", "city": "Monroe", "region": "Louisiana", "region_code": "LA", "country": "United States", "country_code": "US", "continent": "North America", "continent_code": "NA", "latitude": "32.5286", "longitude": "-92.1061", "timezone": "America/Chicago", "postal_code": "71201"}
{"network": "2a12:5940:f736::/48", "city": "Paris", "region": "\u00cele-de-France", "region_code": "IDF", "country": "France", "country_code": "FR", "continent": "Europe", "continent_code": "EU", "latitude": "48.85341", "longitude": "2.3488", "timezone": "Europe/Paris", "postal_code": "75000"}
{"network": "189.253.204.203", "city": "Le\u00f3n de los Aldama", "region": "Guanajuato", "region_code": "GUA", "country": "Mexico", "country_code": "MX", "continent": "North America", "continent_code": "NA", "latitude": "21.12908", "longitude": "-101.67374", "timezone": "America/Mexico_City", "postal_code": "37260"}
{"network": "159.192.83.188/30", "city": "Koh Tao", "region": "Surat Thani", "region_code": "84", "country": "Thailand", "country_code": "TH", "continent": "Asia", "continent_code": "AS", "latitude": "10.09808", "longitude": "99.83809", "timezone": "Asia/Bangkok", "postal_code": "86220"}
{"network": "2a02:2455:1f76:a600::/55", "city": "Frankfurt am Main", "region": "Hesse", "region_code": "HE", "country": "Germany", "country_code": "DE", "continent": "Europe", "continent_code": "EU", "latitude": "50.11552", "longitude": "8.68417", "timezone": "Europe/Berlin", "postal_code": "60306"}
{"network": "212.222.238.216/29", "city": "Greifswald", "region": "Mecklenburg-Vorpommern", "region_code": "MV", "country": "Germany", "country_code": "DE", "continent": "Europe", "continent_code": "EU", "latitude": "54.09311", "longitude": "13.38786", "timezone": "Europe/Berlin", "postal_code": "17489"}
{"network": "166.249.62.0/25", "city": "Fredericksburg", "region": "Virginia", "region_code": "VA", "country": "United States", "country_code": "US", "continent": "North America", "continent_code": "NA", "latitude": "38.30318", "longitude": "-77.46054", "timezone": "America/New_York", "postal_code": "22404"}
{"network": "2a0e:422:610::/45", "city": "Naples", "region": "Campania", "region_code": "72", "country": "Italy", "country_code": "IT", "continent": "Europe", "continent_code": "EU", "latitude": "40.85216", "longitude": "14.26811", "timezone": "Europe/Rome", "postal_code": "80100"}
{"network": "2607:f308:f:800::/53", "city": "Ashburn", "region": "Virginia", "region_code": "VA", "country": "United States", "country_code": "US", "continent": "North America", "continent_code": "NA", "latitude": "39.04372", "longitude": "-77.48749", "timezone": "America/New_York", "postal_code": "20147"}
{"network": "153.208.229.192/27", "city": "Sendai", "region": "Miyagi", "region_code": "04", "country": "Japan", "country_code": "JP", "continent": "Asia", "continent_code": "AS", "latitude": "38.26667", "longitude": "140.86667", "timezone": "Asia/Tokyo", "postal_code": "980-0014"}
{"network": "74.58.47.64/26", "city": "Laval", "region": "Quebec", "region_code": "QC", "country": "Canada", "country_code": "CA", "continent": "North America", "continent_code": "NA", "latitude": "45.56995", "longitude": "-73.692", "timezone": "America/Toronto", "postal_code": "H7G"}
{"network": "2a02:a03f:ab5c:4b04::/62", "city": "Li\u00e8ge", "region": "Wallonia", "region_code": "WAL", "country": "Belgium", "country_code": "BE", "continent": "Europe", "continent_code": "EU", "latitude": "50.63373", "longitude": "5.56749", "timezone": "Europe/Brussels", "postal_code": "4000"}
{"network": "96.22.219.230/31", "city": "Brossard", "region": "Quebec", "region_code": "QC", "country": "Canada", "country_code": "CA", "continent": "North America", "continent_code": "NA", "latitude": "45.45008", "longitude": "-73.46583", "timezone": "America/Toronto", "postal_code": "J4X"}
{"network": "194.186.138.21", "city": "Khabarovsk", "region": "Khabarovsk", "region_code": "KHA", "country": "Russia", "country_code": "RU", "continent": "Europe", "continent_code": "EU", "latitude": "48.48271", "longitude": "135.08379", "timezone": "Asia/Vladivostok", "postal_code": "680000"}
{"network": "2a04:981:5604:5000::/55", "city": "Kristiansand", "region": "Agder", "region_code": "42", "country": "Norway", "country_code": "NO", "continent": "Europe", "continent_code": "EU", "latitude": "58.14671", "longitude": "7.9956", "timezone": "Europe/Oslo", "postal_code": "4604"}
{"network": "2402:3a80:86f::/56", "city": "Sambhaji Nagar", "region": "Maharashtra", "region_code": "MH", "country": "India", "country_code": "IN", "continent": "Asia", "continent_code": "AS", "latitude": "19.87757", "longitude": "75.34226", "timezone": "Asia/Kolkata", "postal_code": "431007"}
{"network": "84.64.53.16/31", "city": "Mansfield", "region": "England", "region_code": "ENG", "country": "United Kingdom", "country_code": "GB", "continent": "Europe", "continent_code": "EU", "latitude": "53.13333", "longitude": "-1.2", "timezone": "Europe/London", "postal_code": "NG18"}
{"network": "191.133.101.224/27", "city": "S\u00e3o Paulo", "region": "S\u00e3o Paulo", "region_code": "SP", "country": "Brazil", "country_code": "BR", "continent": "South America", "continent_code": "SA", "latitude": "-23.5475", "longitude": "-46.63611", "timezone": "America/Sao_Paulo", "postal_code": "01000-000"}
{"network": "2001:2d8:ee4b:7000::/54", "city": "Seoul", "region": "Seoul", "region_code": "11", "country": "South Korea", "country_code": "KR", "continent": "Asia", "continent_code": "AS", "latitude": "37.566", "longitude": "126.9784", "timezone": "Asia/Seoul", "postal_code": "03141"}
{"network": "45.52.35.216/29", "city": "Jordan", "region": "Minnesota", "region_code": "MN", "country": "United States", "country_code": "US", "continent": "North America", "continent_code": "NA", "latitude": "44.66691", "longitude": "-93.6269", "timezone": "America/Chicago", "postal_code": "55352"}
{"network": "75.89.42.16/30", "city": "Templeton", "region": "Pennsylvania", "region_code": "PA", "country": "United States", "country_code": "US", "continent": "North America", "continent_code": "NA", "latitude": "40.91729", "longitude": "-79.46088", "timezone": "America/New_York", "postal_code": "16259"}
{"network": "2804:2b8:21ea:4000::/50", "city": "S\u00e3o Paulo", "region": "S\u00e3o Paulo", "region_code": "SP", "country": "Brazil", "country_code": "BR", "continent": "South America", "continent_code": "SA", "latitude": "-23.5475", "longitude": "-46.63611", "timezone": "America/Sao_Paulo", "postal_code": "01000-000"}
{"network": "2804:30c:1d44:2000::/51", "city": "Porto Belo", "region": "Santa Catarina", "region_code": "SC", "country": "Brazil", "country_code": "BR", "continent": "South America", "continent_code": "SA", "latitude": "-27.15778", "longitude": "-48.55306", "timezone": "America/Sao_Paulo", "postal_code": "88210-000"}
{"network": "92.41.123.48/29", "city": "Redcar", "region": "England", "region_code": "ENG", "country": "United Kingdom", "country_code": "GB", "continent": "Europe", "continent_code": "EU", "latitude": "54.61657", "longitude": "-1.05999", "timezone": "Europe/London", "postal_code": "TS10"}
{"network": "2409:8a4c:7001:cd00::/56", "city": "Shanghai", "region": "Shanghai", "region_code": "SH", "country": "China", "country_code": "CN", "continent": "Asia", "continent_code": "AS", "latitude": "31.22222", "longitude": "121.45806", "timezone": "Asia/Shanghai", "postal_code": "200000"}
{"network": "86.164.203.180/30", "city": "Tyldesley", "region": "England", "region_code": "ENG", "country": "United Kingdom", "country_code": "GB", "continent": "Europe", "continent_code": "EU", "latitude": "53.51393", "longitude": "-2.46754", "timezone": "Europe/London", "postal_code": "M29"}
{"network": "2001:1890:c0a:ca00::/56", "city": "Atlanta", "region": "Georgia", "region_code": "GA", "country": "United States", "country_code": "US", "continent": "North America", "continent_code": "NA", "latitude": "33.749", "longitude": "-84.38798", "timezone": "America/New_York", "postal_code": "30302"}
{"network": "102.32.73.120/29", "city": "Middelburg", "region": "Mpumalanga", "region_code": "MP", "country": "South Africa", "country_code": "ZA", "continent": "Africa", "continent_code": "AF", "latitude": "-25.77507", "longitude": "29.46482", "timezone": "Africa/Johannesburg", "postal_code": "1065"}
{"network": "2804:1788:43b:800::/53", "city": "Rio de Janeiro", "region": "Rio de Janeiro", "region_code": "RJ", "country": "Brazil", "country_code": "BR", "continent": "South America", "continent_code": "SA", "latitude": "-22.90642", "longitude": "-43.18223", "timezone": "America/Sao_Paulo", "postal_code": "20000-000"}
{"network": "73.157.154.0/24", "city": "Salem", "region": "Oregon", "region_code": "OR", "country": "United States", "country_code": "US", "continent": "North America", "continent_code": "NA", "latitude": "44.9429", "longitude": "-123.0351", "timezone": "America/Los_Angeles", "postal_code": "97308"}
{"network": "126.254.40.12/30", "city": "Tokyo", "region": "Tokyo", "region_code": "13", "country": "Japan", "country_code": "JP", "continent": "Asia", "continent_code": "AS", "latitude": "35.6895", "longitude": "139.69171", "timezone": "Asia/Tokyo", "postal_code": "101-8656"}
{"network": "85.113.251.32/27", "city": "Zagreb", "region": "Zagreb", "region_code": "21", "country": "Croatia", "country_code": "HR", "continent": "Europe", "continent_code": "EU", "latitude": "45.81444", "longitude": "15.97798", "timezone": "Europe/Zagreb", "postal_code": "10000"}
{"network": "219.122.201.148/31", "city": "Ky\u014dtango", "region": "Kyoto", "region_code": "26", "country": "Japan", "country_code": "JP", "continent": "Asia", "continent_code": "AS", "latitude": "35.60623", "longitude": "135.04429", "timezone": "Asia/Tokyo", "postal_code": "627-0000"}
{"network": "2a12:1801:64b1:4000::/50", "city": "Moscow", "region": "Moscow", "region_code": "MOW", "country": "Russia", "country_code": "RU", "continent": "Europe", "continent_code": "EU", "latitude": "55.75222", "longitude": "37.61556", "timezone": "Europe/Moscow", "postal_code": "101000"}
{"network": "2409:4066:e9c:2f00::/56", "city": "Dharmanagar", "region": "Tripura", "region_code": "TR", "country": "India", "country_code": "IN", "continent": "Asia", "continent_code": "AS", "latitude": "24.36667", "longitude": "92.16667", "timezone": "Asia/Kolkata", "postal_code": "799260"}
{"network": "77.180.174.176/29", "city": "Stuttgart", "region": "Baden-Wurttemberg", "region_code": "BW", "country": "Germany", "country_code": "DE", "continent": "Europe", "continent_code": "EU", "latitude": "48.78232", "longitude": "9.17702", "timezone": "Europe/Berlin", "postal_code": "70173"}
{"network": "2a09:bac5:41b3:1b00::/58", "city": "Miami", "region": "Florida", "region_code": "FL", "country": "United States", "country_code": "US", "continent": "North America", "continent_code": "NA", "latitude": "25.77427", "longitude": "-80.19366", "timezone": "America/New_York", "postal_code": "33101"}
{"network": "240e:342:9ba1:3000::/53", "city": "Shanghai", "region": "Shanghai", "region_code": "SH", "country": "China", "country_code": "CN", "continent": "Asia", "continent_code": "AS", "latitude": "31.22222", "longitude": "121.45806", "timezone": "Asia/Shanghai", "postal_code": "200000"}
{"network": "2a09:bac5:29aa:1280::/63", "city": "Munich", "region": "Bavaria", "region_code": "BY", "country": "Germany", "country_code": "DE", "continent": "Europe", "continent_code": "EU", "latitude": "48.13743", "longitude": "11.57549", "timezone": "Europe/Berlin", "postal_code": "80097"}
{"network": "2409:40e3:21:6900::/56", "city": "Padrauna", "region": "Uttar Pradesh", "region_code": "UP", "country": "India", "country_code": "IN", "continent": "Asia", "continent_code": "AS", "latitude": "26.90403", "longitude": "83.98087", "timezone": "Asia/Kolkata", "postal_code": "274149"}
{"network": "2a02:a03f:a2ff:7e40::/58", "city": "Li\u00e8ge", "region": "Wallonia", "region_code": "WAL", "country": "Belgium", "country_code": "BE", "continent": "Europe", "continent_code": "EU", "latitude": "50.63373", "longitude": "5.56749", "timezone": "Europe/Brussels", "postal_code": "4000"}
{"network": "114.159.47.48/28", "city": "Ube", "region": "Yamaguchi", "region_code": "35", "country": "Japan", "country_code": "JP", "continent": "Asia", "continent_code": "AS", "latitude": "33.94306", "longitude": "131.25111", "timezone": "Asia/Tokyo", "postal_code": "752-0923"}
{"network": "2a0e:19c0:400::/38", "city": "Moscow", "region": "Moscow", "region_code": "MOW", "country": "Russia", "country_code": "RU", "continent": "Europe", "continent_code": "EU", "latitude": "55.75222", "longitude": "37.61556", "timezone": "Europe/Moscow", "postal_code": "101000"}
{"network": "153.221.138.221", "city": "Shimotoda", "region": "Saitama", "region_code": "11", "country": "Japan", "country_code": "JP", "continent": "Asia", "continent_code": "AS", "latitude": "35.815", "longitude": "139.6853", "timezone": "Asia/Tokyo", "postal_code": "335-0011"}
{"network": "2804:390c:8f8e:400::/54", "city": "Benevides", "region": "Par\u00e1", "region_code": "PA", "country": "Brazil", "country_code": "BR", "continent": "South America", "continent_code": "SA", "latitude": "-1.36139", "longitude": "-48.24472", "timezone": "America/Belem", "postal_code": "68795-000"}
{"network": "2a01:e0a:bfe:dec0::/59", "city": "Sauveterre-de-B\u00e9arn", "region": "Nouvelle-Aquitaine", "region_code": "NAQ", "country": "France", "country_code": "FR", "continent": "Europe", "continent_code": "EU", "latitude": "43.3993", "longitude": "-0.94011", "timezone": "Europe/Paris", "postal_code": "64390"}
{"network": "158.14.48.0/21", "city": "Columbus", "region": "Ohio", "region_code": "OH", "country": "United States", "country_code": "US", "continent": "North America", "continent_code": "NA", "latitude": "39.9539", "longitude": "-82.9301", "timezone": "America/New_York", "postal_code": "43209"}
{"network": "2408:8221:3d1e:3400::/56", "city": "Shenzhen", "region": "Guangdong", "region_code": "GD", "country": "China", "country_code": "CN", "continent": "Asia", "continent_code": "AS", "latitude": "22.54554", "longitude": "114.0683", "timezone": "Asia/Shanghai", "postal_code": "518000"}
{"network": "5.47.1.56/29", "city": "\u0130zmir", "region": "\u0130zmir Province", "region_code": "35", "country": "Turkey", "country_code": "TR", "continent": "Asia", "continent_code": "AS", "latitude": "38.41273", "longitude": "27.13838", "timezone": "Europe/Istanbul", "postal_code": "35210"}
{"network": "182.169.168.200/29", "city": "Ichihara", "region": "Chiba", "region_code": "12", "country": "Japan", "country_code": "JP", "continent": "Asia", "continent_code": "AS", "latitude": "35.51667", "longitude": "140.08333", "timezone": "Asia/Tokyo", "postal_code": "290-0015"}
{"network": "193.251.170.26/31", "city": "Paris", "region": "\u00cele-de-France", "region_code": "IDF", "country": "France", "country_code": "FR", "continent": "Europe", "continent_code": "EU", "latitude": "48.85341", "longitude": "2.3488", "timezone": "Europe/Paris", "postal_code": "75000"}
{"network": "2409:408c:8609:e800::/56", "city": "Emmigan\u016br", "region": "Andhra Pradesh", "region_code": "AP", "country": "India", "country_code": "IN", "continent": "Asia", "continent_code": "AS", "latitude": "15.77203", "longitude": "77.48345", "timezone": "Asia/Kolkata", "postal_code": "518360"}
{"network": "2803:e5e0:1944:222::/64", "city": "Cali", "region": "Valle del Cauca Department", "region_code": "VAC", "country": "Colombia", "country_code": "CO", "continent": "South America", "continent_code": "SA", "latitude": "3.43722", "longitude": "-76.5225", "timezone": "America/Bogota", "postal_code": "760001"}
{"network": "240e:370:310b:7c00::/55", "city": "Shanghai", "region": "Shanghai", "region_code": "SH", "country": "China", "country_code": "CN", "continent": "Asia", "continent_code": "AS", "latitude": "31.22222", "longitude": "121.45806", "timezone": "Asia/Shanghai", "postal_code": "200000"}
{"network": "2a09:bac1:19a1:11f0::/61", "city": "Atlanta", "region": "Georgia", "region_code": "GA", "country": "United States", "country_code": "US", "continent": "North America", "continent_code": "NA", "latitude": "33.749", "longitude": "-84.38798", "timezone": "America/New_York", "postal_code": "30302"}
{"network": "174.16.128.202", "city": "Thornton", "region": "Colorado", "region_code": "CO", "country": "United States", "country_code": "US", "continent": "North America", "continent_code": "NA", "latitude": "39.86804", "longitude": "-104.97192", "timezone": "America/Denver", "postal_code": "80241"}
{"network": "2400:2200:4a5:ae00::/56", "city": "Gifu", "region": "Gifu", "region_code": "21", "country": "Japan", "country_code": "JP", "continent": "Asia", "continent_code": "AS", "latitude": "35.42291", "longitude": "136.76039", "timezone": "Asia/Tokyo", "postal_code": "500-8043"}
{"network": "2003:f1:cf36:5400::/56", "city": "Hainichen", "region": "Saxony", "region_code": "SN", "country": "Germany", "country_code": "DE", "continent": "Europe", "continent_code": "EU", "latitude": "50.97044", "longitude": "13.12287", "timezone": "Europe/Berlin", "postal_code": "09661"}
{"network": "67.0.64.38", "city": "Albuquerque", "region": "New Mexico", "region_code": "NM", "country": "United States", "country_code": "US", "continent": "North America", "continent_code": "NA", "latitude": "35.08449", "longitude": "-106.65114", "timezone": "America/Denver", "postal_code": "87102"}
{"network": "2003:c8:671b:e000::/53", "city": "Frankfurt am Main", "region": "Hesse", "region_code": "HE", "country": "Germany", "country_code": "DE", "continent": "Europe", "continent_code": "EU", "latitude": "50.11552", "longitude": "8.68417", "timezone": "Europe/Berlin", "postal_code": "60306"}
{"network": "96.216.225.13", "city": "Manahawkin", "region": "New Jersey", "region_code": "NJ", "country": "United States", "country_code": "US", "continent": "North America", "continent_code": "NA", "latitude": "39.6954", "longitude": "-74.25875", "timezone": "America/New_York", "postal_code": "08050"}
{"network": "179.157.125.47", "city": "Aparecida", "region": "S\u00e3o Paulo", "region_code": "SP", "country": "Brazil", "country_code": "BR", "continent": "South America", "continent_code": "SA", "latitude": "-22.84694", "longitude": "-45.22972", "timezone": "America/Sao_Paulo", "postal_code": "12570-000"}
{"network": "2409:4065:c42:200::/56", "city": "Pall\u0101varam", "region": "Tamil Nadu", "region_code": "TN", "country": "India", "country_code": "IN", "continent": "Asia", "continent_code": "AS", "latitude": "12.96796", "longitude": "80.15025", "timezone": "Asia/Kolkata", "postal_code": "600043"}
{"network": "90.196.205.99", "city": "Telford", "region": "England", "region_code": "ENG", "country": "United Kingdom", "country_code": "GB", "continent": "Europe", "continent_code": "EU", "latitude": "52.67659", "longitude": "-2.44926", "timezone": "Europe/London", "postal_code": "TF3"}
{"network": "2a02:c7f:ba8d:c000::/50", "city": "London", "region": "England", "region_code": "ENG", "country": "United Kingdom", "country_code": "GB", "continent": "Europe", "continent_code": "EU", "latitude": "51.50853", "longitude": "-0.12574", "timezone": "Europe/London", "postal_code": "E1W"}
{"network": "189.242.222.225", "city": "Mexico City", "region": "Mexico City", "region_code": "CMX", "country": "Mexico", "country_code": "MX", "continent": "North America", "continent_code": "NA", "latitude": "19.42847", "longitude": "-99.12766", "timezone": "America/Mexico_City", "postal_code": "03020"}
{"network": "240e:47d:c262::/47", "city": "Shanghai", "region": "Shanghai", "region_code": "SH", "country": "China", "country_code": "CN", "continent": "Asia", "continent_code": "AS", "latitude": "31.22222", "longitude": "121.45806", "timezone": "Asia/Shanghai", "postal_code": "200000"}
{"network": "50.108.244.16/30", "city": "Gloversville", "region": "New York", "region_code": "NY", "country": "United States", "country_code": "US", "continent": "North America", "continent_code": "NA", "latitude": "43.05285", "longitude": "-74.34375", "timezone": "America/New_York", "postal_code": "12078"}
{"network": "178.247.171.4/31", "city": "\u0130zmir", "region": "\u0130zmir Province", "region_code": "35", "country": "Turkey", "country_code": "TR", "continent": "Asia", "continent_code": "AS", "latitude": "38.41273", "longitude": "27.13838", "timezone": "Europe/Istanbul", "postal_code": "35210"}
{"network": "2a01:c23:8461:a700::/56", "city": "H\u00f6rselgau", "region": "Thuringia", "region_code": "TH", "country": "Germany", "country_code": "DE", "continent": "Europe", "continent_code": "EU", "latitude": "50.91988", "longitude": "10.58444", "timezone": "Europe/Berlin", "postal_code": "99880"}
{"network": "76.130.6.72/29", "city": "Boulder", "region": "Colorado", "region_code": "CO", "country": "United States", "country_code": "US", "continent": "North America", "continent_code": "NA", "latitude": "40.01499", "longitude": "-105.27055", "timezone": "America/Denver", "postal_code": "80309"}
{"network": "2a0e:42d:460d::/48", "city": "Gallarate", "region": "Lombardy", "region_code": "25", "country": "Italy", "country_code": "IT", "continent": "Europe", "continent_code": "EU", "latitude": "45.66019", "longitude": "8.79164", "timezone": "Europe/Rome", "postal_code": "21013"}
{"network": "2409:8a44:163f:a000::/51", "city": "Shanghai", "region": "Shanghai", "region_code": "SH", "country": "China", "country_code": "CN", "continent": "Asia", "continent_code": "AS", "latitude": "31.22222", "longitude": "121.45806", "timezone": "Asia/Shanghai", "postal_code": "200000"}
{"network": "240e:314:1644:6800::/55", "city": "Shanghai", "region": "Shanghai", "region_code": "SH", "country": "China", "country_code": "CN", "continent": "Asia", "continent_code": "AS", "latitude": "31.22222", "longitude": "121.45806", "timezone": "Asia/Shanghai", "postal_code": "200000"}
{"network": "217.178.33.182/31", "city": "Machida", "region": "Tokyo", "region_code": "13", "country": "Japan", "country_code": "JP", "continent": "Asia", "continent_code": "AS", "latitude": "35.54028", "longitude": "139.45083", "timezone": "Asia/Tokyo", "postal_code": "290-0267"}
{"network": "77.8.3.232/29", "city": "Appen", "region": "Schleswig-Holstein", "region_code": "SH", "country": "Germany", "country_code": "DE", "continent": "Europe", "continent_code": "EU", "latitude": "53.65813", "longitude": "9.74582", "timezone": "Europe/Berlin", "postal_code": "25482"}
{"network": "217.110.164.164/30", "city": "Frankfurt am Main", "region": "Hesse", "region_code": "HE", "country": "Germany", "country_code": "DE", "continent": "Europe", "continent_code": "EU", "latitude": "50.11552", "longitude": "8.68417", "timezone": "Europe/Berlin", "postal_code": "60306"}
{"network": "94.16.72.224/29", "city": "Darmstadt", "region": "Hesse", "region_code": "HE", "country": "Germany", "country_code": "DE", "continent": "Europe", "continent_code": "EU", "latitude": "49.87167", "longitude": "8.65027", "timezone": "Europe/Berlin", "postal_code": "64283"}
{"network": "2401:4900:3a0e:8d00::/56", "city": "D\u012bnh\u0101ta", "region": "West Bengal", "region_code": "WB", "country": "India", "country_code": "IN", "continent": "Asia", "continent_code": "AS", "latitude": "26.13526", "longitude": "89.46129", "timezone": "Asia/Kolkata", "postal_code": "736135"}
{"network": "64.196.248.40/30", "city": "New York City", "region": "New York", "region_code": "NY", "country": "United States", "country_code": "US", "continent": "North America", "continent_code": "NA", "latitude": "40.71427", "longitude": "-74.00597", "timezone": "America/New_York", "postal_code": "10001"}