{"network": "2409:408a:131e:6b00::/56", "city": "Daltonganj", "region": "Jharkhand", "region_code": "JH", "country": "India", "country_code": "IN", "continent": "Asia", "continent_code": "AS", "latitude": "24.03971", "longitude": "84.0658", "timezone": "Asia/Kolkata", "postal_code": "822101"}
{"network": "27.2.86.0/23", "city": "Tuy H\u00f2a", "region": "Ph\u00fa Y\u00ean Province", "region_code": "32", "country": "Vietnam", "country_code": "VN", "continent": "Asia", "continent_code": "AS", "latitude": "13.09546", "longitude": "109.32094", "timezone": "Asia/Ho_Chi_Minh", "postal_code": "56150"}
{"network": "2604:4080:104d:1000::/52", "city": "Seattle", "region": "Washington", "region_code": "WA", "country": "United States", "country_code": "US", "continent": "North America", "continent_code": "NA", "latitude": "47.5903", "longitude": "-122.3263", "timezone": "America/Los_Angeles", "postal_code": "98134"}
{"network": "109.0.70.138", "city": "Charbuy", "region": "Bourgogne-Franche-Comt\u00e9", "region_code": "BFC", "country": "France", "country_code": "FR", "continent": "Europe", "continent_code": "EU", "latitude": "47.82282", "longitude": "3.46617", "timezone": "Europe/Paris", "postal_code": "89113"}
{"network": "2408:826e:db00::/48", "city": "Shanghai", "region": "Shanghai", "region_code": "SH", "country": "China", "country_code": "CN", "continent": "Asia", "continent_code": "AS", "latitude": "31.22222", "longitude": "121.45806", "timezone": "Asia/Shanghai", "postal_code": "200000"}
{"network": "2a0b:b0c5:a4f2::/47", "city": "Moscow", "region": "Moscow", "region_code": "MOW", "country": "Russia", "country_code": "RU", "continent": "Europe", "continent_code": "EU", "latitude": "55.752", "longitude": "37.615", "timezone": "Europe/Moscow", "postal_code": "117628"}
{"network": "2804:26d4:2087:4000::/50", "city": "S\u00e3o Paulo", "region": "S\u00e3o Paulo", "region_code": "SP", "country": "Brazil", "country_code": "BR", "continent": "South America", "continent_code": "SA", "latitude": "-23.5475", "longitude": "-46.63611", "timezone": "America/Sao_Paulo", "postal_code": "01000-000"}
{"network": "188.152.107.0/25", "city": "Alessandria", "region": "Piedmont", "region_code": "21", "country": "Italy", "country_code": "IT", "continent": "Europe", "continent_code": "EU", "latitude": "44.90924", "longitude": "8.61007", "timezone": "Europe/Rome", "postal_code": "15100"}
{"network": "104.169.186.56/29", "city": "Durham", "region": "North Carolina", "region_code": "NC", "country": "United States", "country_code": "US", "continent": "North America", "continent_code": "NA", "latitude": "35.99403", "longitude": "-78.89862", "timezone": "America/New_York", "postal_code": "27701"}
{"network": "187.15.222.140/31", "city": "Maca\u00e9", "region": "Rio de Janeiro", "region_code": "RJ", "country": "Brazil", "country_code": "BR", "continent": "South America", "continent_code": "SA", "latitude": "-22.38484", "longitude": "-41.78324", "timezone": "America/Sao_Paulo", "postal_code": "27900-000"}
{"network": "213.125.140.148/30", "city": "The Hague", "region": "South Holland", "region_code": "ZH", "country": "Netherlands", "country_code": "NL", "continent": "Europe", "continent_code": "EU", "latitude": "52.07667", "longitude": "4.29861", "timezone": "Europe/Amsterdam", "postal_code": "2512"}
{"network": "2001:14ba:1ef7::/56", "city": "Koivukyl\u00e4", "region": "Uusimaa", "region_code": "18", "country": "Finland", "country_code": "FI", "continent": "Europe", "continent_code": "EU", "latitude": "60.32236", "longitude": "25.05861", "timezone": "Europe/Helsinki", "postal_code": "01360"}
{"network": "2a09:bac5:723c:1000::/52", "city": "West Point", "region": "Georgia", "region_code": "GA", "country": "United States", "country_code": "US", "continent": "North America", "continent_code": "NA", "latitude": "32.87791", "longitude": "-85.18327", "timezone": "America/New_York", "postal_code": "31833"}
{"network": "157.25.95.15", "city": "Mokot\u00f3w", "region": "Mazovia", "region_code": "14", "country": "Poland", "country_code": "PL", "continent": "Europe", "continent_code": "EU", "latitude": "52.1934", "longitude": "21.03487", "timezone": "Europe/Warsaw", "postal_code": "00-728"}
{"network": "2a02:6bf:8033:400::/55", "city": "Moscow", "region": "Moscow", "region_code": "MOW", "country": "Russia", "country_code": "RU", "continent": "Europe", "continent_code": "EU", "latitude": "55.752", "longitude": "37.615", "timezone": "Europe/Moscow", "postal_code": "119021"}
{"network": "2a0e:cbc3:6066:97c4::/63", "city": "Ho Chi Minh City", "region": "Ho Chi Minh", "region_code": "SG", "country": "Vietnam", "country_code": "VN", "continent": "Asia", "continent_code": "AS", "latitude": "10.82302", "longitude": "106.62965", "timezone": "Asia/Ho_Chi_Minh", "postal_code": "71606"}
{"network": "123.17.161.128/28", "city": "L\u1ea1ng S\u01a1n", "region": "L\u1ea1ng S\u01a1n Province", "region_code": "09", "country": "Vietnam", "country_code": "VN", "continent": "Asia", "continent_code": "AS", "latitude": "21.85264", "longitude": "106.76101", "timezone": "Asia/Bangkok", "postal_code": "25130"}
{"network": "2003:ff:470e:3000::/53", "city": "K\u00f6ln", "region": "North Rhine-Westphalia", "region_code": "NW", "country": "Germany", "country_code": "DE", "continent": "Europe", "continent_code": "EU", "latitude": "50.93333", "longitude": "6.95", "timezone": "Europe/Berlin", "postal_code": "50667"}
{"network": "2409:4061:2dc4:8b00::/56", "city": "Baruipur", "region": "West Bengal", "region_code": "WB", "country": "India", "country_code": "IN", "continent": "Asia", "continent_code": "AS", "latitude": "22.36544", "longitude": "88.4325", "timezone": "Asia/Kolkata", "postal_code": "743399"}
{"network": "75.128.164.208/29", "city": "Warrensburg", "region": "Missouri", "region_code": "MO", "country": "United States", "country_code": "US", "continent": "North America", "continent_code": "NA", "latitude": "38.76279", "longitude": "-93.73605", "timezone": "America/Chicago", "postal_code": "64093"}
{"network": "212.43.188.232/29", "city": "Reading", "region": "England", "region_code": "ENG", "country": "United Kingdom", "country_code": "GB", "continent": "Europe", "continent_code": "EU", "latitude": "51.45625", "longitude": "-0.97113", "timezone": "Europe/London", "postal_code": "RG1"}
{"network": "2600:100f:a110:eddc::/62", "city": "Eugene", "region": "Oregon", "region_code": "OR", "country": "United States", "country_code": "US", "continent": "North America", "continent_code": "NA", "latitude": "44.05207", "longitude": "-123.08675", "timezone": "America/Los_Angeles", "postal_code": "97440"}
{"network": "76.16.73.1", "city": "Detroit", "region": "Michigan", "region_code": "MI", "country": "United States", "country_code": "US", "continent": "North America", "continent_code": "NA", "latitude": "42.33143", "longitude": "-83.04575", "timezone": "America/Detroit", "postal_code": "48226"}
{"network": "2804:a98:72:4000::/50", "city": "Rio de Janeiro", "region": "Rio de Janeiro", "region_code": "RJ", "country": "Brazil", "country_code": "BR", "continent": "South America", "continent_code": "SA", "latitude": "-22.90642", "longitude": "-43.18223", "timezone": "America/Sao_Paulo", "postal_code": "20000-000"}
{"network": "240e:370:a914:2800::/55", "city": "Shanghai", "region": "Shanghai", "region_code": "SH", "country": "China", "country_code": "CN", "continent": "Asia", "continent_code": "AS", "latitude": "31.22222", "longitude": "121.45806", "timezone": "Asia/Shanghai", "postal_code": "200000"}
{"network": "183.77.3.26/31", "city": "Kochi", "region": "Kochi", "region_code": "39", "country": "Japan", "country_code": "JP", "continent": "Asia", "continent_code": "AS", "latitude": "33.55", "longitude": "133.53333", "timezone": "Asia/Tokyo", "postal_code": "775-0001"}
{"network": "2409:8a74:9801:4000::/56", "city": "Hefei", "region": "Anhui", "region_code": "AH", "country": "China", "country_code": "CN", "continent": "Asia", "continent_code": "AS", "latitude": "31.86389", "longitude": "117.28083", "timezone": "Asia/Shanghai", "postal_code": "230000"}
{"network": "195.155.0.119", "city": "Fowler", "region": "California", "region_code": "CA", "country": "United States", "country_code": "US", "continent": "North America", "continent_code": "NA", "latitude": "36.63051", "longitude": "-119.67847", "timezone": "America/Los_Angeles", "postal_code": "93625"}
{"network": "2409:4063:4c1a:6600::/56", "city": "T\u0101lbahat", "region": "Uttar Pradesh", "region_code": "UP", "country": "India", "country_code": "IN", "continent": "Asia", "continent_code": "AS", "latitude": "25.04357", "longitude": "78.43441", "timezone": "Asia/Kolkata", "postal_code": "284126"}
{"network": "192.99.146.106", "city": "Ashburn", "region": "Virginia", "region_code": "VA", "country": "United States", "country_code": "US", "continent": "North America", "continent_code": "NA", "latitude": "39.04372", "longitude": "-77.48749", "timezone": "America/New_York", "postal_code": "20147"}
{"network": "97.137.228.224/29", "city": "Prairieville", "region": "Louisiana", "region_code": "LA", "country": "United States", "country_code": "US", "continent": "North America", "continent_code": "NA", "latitude": "30.30297", "longitude": "-90.97205", "timezone": "America/Chicago", "postal_code": "70769"}
{"network": "14.233.23.140/30", "city": "Hoi An", "region": "Qu\u1ea3ng Nam Province", "region_code": "27", "country": "Vietnam", "country_code": "VN", "continent": "Asia", "continent_code": "AS", "latitude": "15.87944", "longitude": "108.335", "timezone": "Asia/Ho_Chi_Minh", "postal_code": "51350"}
{"network": "124.154.235.36/30", "city": "Fukuoka", "region": "Fukuoka", "region_code": "40", "country": "Japan", "country_code": "JP", "continent": "Asia", "continent_code": "AS", "latitude": "33.6", "longitude": "130.41667", "timezone": "Asia/Tokyo", "postal_code": "812-0024"}
{"network": "2a01:e0a:492:f3f0::/64", "city": "Biscarrosse", "region": "Nouvelle-Aquitaine", "region_code": "NAQ", "country": "France", "country_code": "FR", "continent": "Europe", "continent_code": "EU", "latitude": "44.39454", "longitude": "-1.16721", "timezone": "Europe/Paris", "postal_code": "40600"}
{"network": "2403:3a00:f800::/37", "city": "Asagaya-minami", "region": "Tokyo", "region_code": "13", "country": "Japan", "country_code": "JP", "continent": "Asia", "continent_code": "AS", "latitude": "35.70206", "longitude": "139.63745", "timezone": "Asia/Tokyo", "postal_code": "166-0000"}
{"network": "240e:355:666:3400::/54", "city": "Shanghai", "region": "Shanghai", "region_code": "SH", "country": "China", "country_code": "CN", "continent": "Asia", "continent_code": "AS", "latitude": "31.22222", "longitude": "121.45806", "timezone": "Asia/Shanghai", "postal_code": "200000"}
{"network": "2001:56a:f301::/48", "city": "Edmonton", "region": "Alberta", "region_code": "AB", "country": "Canada", "country_code": "CA", "continent": "North America", "continent_code": "NA", "latitude": "53.55014", "longitude": "-113.46871", "timezone": "America/Edmonton", "postal_code": "T5H"}
{"network": "2409:4041:e90:4700::/56", "city": "Dohad", "region": "Gujarat", "region_code": "GJ", "country": "India", "country_code": "IN", "continent": "Asia", "continent_code": "AS", "latitude": "22.83283", "longitude": "74.25986", "timezone": "Asia/Kolkata", "postal_code": "389160"}
{"network": "2409:4060:2d8a:9800::/55", "city": "Kolkata", "region": "West Bengal", "region_code": "WB", "country": "India", "country_code": "IN", "continent": "Asia", "continent_code": "AS", "latitude": "22.56263", "longitude": "88.36304", "timezone": "Asia/Kolkata", "postal_code": "700001"}
{"network": "2409:4063:228a:c000::/56", "city": "Lalganj", "region": "Uttar Pradesh", "region_code": "UP", "country": "India", "country_code": "IN", "continent": "Asia", "continent_code": "AS", "latitude": "25.799", "longitude": "82.99768", "timezone": "Asia/Kolkata", "postal_code": "276127"}
{"network": "2409:4073:2099:9d00::/56", "city": "Tellicherry", "region": "Kerala", "region_code": "KL", "country": "India", "country_code": "IN", "continent": "Asia", "continent_code": "AS", "latitude": "11.74811", "longitude": "75.4929", "timezone": "Asia/Kolkata", "postal_code": "670102"}
{"network": "2a01:e0a:a82:ed2::/63", "city": "Angers", "region": "Pays de la Loire", "region_code": "PDL", "country": "France", "country_code": "FR", "continent": "Europe", "continent_code": "EU", "latitude": "47.47156", "longitude": "-0.55202", "timezone": "Europe/Paris", "postal_code": "49000"}
{"network": "2600:1006:b13b:c400::/54", "city": "The Villages", "region": "Florida", "region_code": "FL", "country": "United States", "country_code": "US", "continent": "North America", "continent_code": "NA", "latitude": "28.93408", "longitude": "-81.95994", "timezone": "America/New_York", "postal_code": "32162"}
{"network": "75.233.82.88/29", "city": "Phoenix", "region": "Arizona", "region_code": "AZ", "country": "United States", "country_code": "US", "continent": "North America", "continent_code": "NA", "latitude": "33.44838", "longitude": "-112.07404", "timezone": "America/Phoenix", "postal_code": "85001"}
{"network": "109.107.36.232/29", "city": "Liverpool", "region": "England", "region_code": "ENG", "country": "United Kingdom", "country_code": "GB", "continent": "Europe", "continent_code": "EU", "latitude": "53.41058", "longitude": "-2.97794", "timezone": "Europe/London", "postal_code": "L1"}
{"network": "67.169.53.132/30", "city": "Tiburon", "region": "California", "region_code": "CA", "country": "United States", "country_code": "US", "continent": "North America", "continent_code": "NA", "latitude": "37.87354", "longitude": "-122.45664", "timezone": "America/Los_Angeles", "postal_code": "94920"}
{"network": "68.191.122.124/30", "city": "Sugar Hill", "region": "Georgia", "region_code": "GA", "country": "United States", "country_code": "US", "continent": "North America", "continent_code": "NA", "latitude": "34.10649", "longitude": "-84.03352", "timezone": "America/New_York", "postal_code": "30518"}
{"network": "2a0e:b146:6670::/44", "city": "Saint Petersburg", "region": "St.-Petersburg", "region_code": "SPE", "country": "Russia", "country_code": "RU", "continent": "Europe", "continent_code": "EU", "latitude": "59.93863", "longitude": "30.31413", "timezone": "Europe/Moscow", "postal_code": "195213"}
{"network": "2001:1890:139e:7300::/56", "city": "Middletown", "region": "New Jersey", "region_code": "NJ", "country": "United States", "country_code": "US", "continent": "North America", "continent_code": "NA", "latitude": "40.39428", "longitude": "-74.11709", "timezone": "America/New_York", "postal_code": "07748"}
{"network": "179.85.63.106/31", "city": "Camb\u00e9", "region": "Paran\u00e1", "region_code": "PR", "country": "Brazil", "country_code": "BR", "continent": "South America", "continent_code": "SA", "latitude": "-23.27583", "longitude": "-51.27833", "timezone": "America/Sao_Paulo", "postal_code": "86180-000"}
{"network": "184.6.5.0/24", "city": "Columbia", "region": "Virginia", "region_code": "VA", "country": "United States", "country_code": "US", "continent": "North America", "continent_code": "NA", "latitude": "37.75292", "longitude": "-78.1625", "timezone": "America/New_York", "postal_code": "23038"}
{"network": "2401:4900:458c:5200::/56", "city": "B\u0101ri", "region": "Rajasthan", "region_code": "RJ", "country": "India", "country_code": "IN", "continent": "Asia", "continent_code": "AS", "latitude": "26.64661", "longitude": "77.61634", "timezone": "Asia/Kolkata", "postal_code": "328021"}
{"network": "180.12.56.208/28", "city": "Tokyo", "region": "Tokyo", "region_code": "13", "country": "Japan", "country_code": "JP", "continent": "Asia", "continent_code": "AS", "latitude": "35.6895", "longitude": "139.69171", "timezone": "Asia/Tokyo", "postal_code": "101-8656"}
{"network": "2601:603:1680:3091::/64", "city": "Tacoma", "region": "Washington", "region_code": "WA", "country": "United States", "country_code": "US", "continent": "North America", "continent_code": "NA", "latitude": "47.25288", "longitude": "-122.44429", "timezone": "America/Los_Angeles", "postal_code": "98401"}
{"network": "65.121.40.88/29", "city": "Denver", "region": "Colorado", "region_code": "CO", "country": "United States", "country_code": "US", "continent": "North America", "continent_code": "NA", "latitude": "39.73915", "longitude": "-104.9847", "timezone": "America/Denver", "postal_code": "80203"}
{"network": "87.242.173.46/31", "city": "Leicester", "region": "England", "region_code": "ENG", "country": "United Kingdom", "country_code": "GB", "continent": "Europe", "continent_code": "EU", "latitude": "52.6386", "longitude": "-1.13169", "timezone": "Europe/London", "postal_code": "LE1"}
{"network": "173.53.210.128/26", "city": "South Bend", "region": "Indiana", "region_code": "IN", "country": "United States", "country_code": "US", "continent": "North America", "continent_code": "NA", "latitude": "41.68338", "longitude": "-86.25001", "timezone": "America/Indiana/Indianapolis", "postal_code": "46626"}
{"network": "125.18.31.32/27", "city": "Mumbai", "region": "Maharashtra", "region_code": "MH", "country": "India", "country_code": "IN", "continent": "Asia", "continent_code": "AS", "latitude": "19.07283", "longitude": "72.88261", "timezone": "Asia/Kolkata", "postal_code": "400017"}
{"network": "180.131.233.96/29", "city": "Fussa", "region": "Tokyo", "region_code": "13", "country": "Japan", "country_code": "JP", "continent": "Asia", "continent_code": "AS", "latitude": "35.73667", "longitude": "139.32361", "timezone": "Asia/Tokyo", "postal_code": "197-0011"}
{"network": "179.117.195.42/31", "city": "Balne\u00e1rio Cambori\u00fa", "region": "Santa Catarina", "region_code": "SC", "country": "Brazil", "country_code": "BR", "continent": "South America", "continent_code": "SA", "latitude": "-26.99056", "longitude": "-48.63472", "timezone": "America/Sao_Paulo", "postal_code": "88330-000"}
{"network": "2804:984:ffa4:158::/64", "city": "Cuiab\u00e1", "region": "Mato Grosso", "region_code": "MT", "country": "Brazil", "country_code": "BR", "continent": "South America", "continent_code": "SA", "latitude": "-15.59611", "longitude": "-56.09667", "timezone": "America/Cuiaba", "postal_code": "78000-000"}
{"network": "2a09:bac5:34ff:2000::/51", "city": "El Prat de Llobregat", "region": "Catalonia", "region_code": "CT", "country": "Spain", "country_code": "ES", "continent": "Europe", "continent_code": "EU", "latitude": "41.32784", "longitude": "2.09472", "timezone": "Europe/Madrid", "postal_code": "08820"}
{"network": "73.47.7.24/29", "city": "Niantic", "region": "Connecticut", "region_code": "CT", "country": "United States", "country_code": "US", "continent": "North America", "continent_code": "NA", "latitude": "41.32538", "longitude": "-72.19313", "timezone": "America/New_York", "postal_code": "06357"}
{"network": "73.160.172.28", "city": "Hightstown", "region": "New Jersey", "region_code": "NJ", "country": "United States", "country_code": "US", "continent": "North America", "continent_code": "NA", "latitude": "40.26955", "longitude": "-74.52321", "timezone": "America/New_York", "postal_code": "08520"}
{"network": "240e:370:a710:200::/55", "city": "Shanghai", "region": "Shanghai", "region_code": "SH", "country": "China", "country_code": "CN", "continent": "Asia", "continent_code": "AS", "latitude": "31.22222", "longitude": "121.45806", "timezone": "Asia/Shanghai", "postal_code": "200000"}
{"network": "2409:4089:a38c:1f00::/56", "city": "Kanpur", "region": "Uttar Pradesh", "region_code": "UP", "country": "India", "country_code": "IN", "continent": "Asia", "continent_code": "AS", "latitude": "26.46523", "longitude": "80.34975", "timezone": "Asia/Kolkata", "postal_code": "208008"}
{"network": "173.187.157.228/31", "city": "Hustonville", "region": "Kentucky", "region_code": "KY", "country": "United States", "country_code": "US", "continent": "North America", "continent_code": "NA", "latitude": "37.47313", "longitude": "-84.81578", "timezone": "America/New_York", "postal_code": "40437"}
{"network": "2409:408c:1599:7200::/55", "city": "Pall\u0101varam", "region": "Tamil Nadu", "region_code": "TN", "country": "India", "country_code": "IN", "continent": "Asia", "continent_code": "AS", "latitude": "12.96796", "longitude": "80.15025", "timezone": "Asia/Kolkata", "postal_code": "600043"}
{"network": "65.153.3.169", "city": "Kansas City", "region": "Missouri", "region_code": "MO", "country": "United States", "country_code": "US", "continent": "North America", "continent_code": "NA", "latitude": "39.09973", "longitude": "-94.57857", "timezone": "America/Chicago", "postal_code": "64106"}
{"network": "87.138.149.0/28", "city": "Abenberg", "region": "Bavaria", "region_code": "BY", "country": "Germany", "country_code": "DE", "continent": "Europe", "continent_code": "EU", "latitude": "49.24282", "longitude": "10.96401", "timezone": "Europe/Berlin", "postal_code": "91183"}
{"network": "2408:847a:d11c:600::/56", "city": "Beijing", "region": "Beijing", "region_code": "BJ", "country": "China", "country_code": "CN", "continent": "Asia", "continent_code": "AS", "latitude": "39.9075", "longitude": "116.39723", "timezone": "Asia/Shanghai", "postal_code": "100000"}
{"network": "177.223.29.96/29", "city": "Caruaru", "region": "Pernambuco", "region_code": "PE", "country": "Brazil", "country_code": "BR", "continent": "South America", "continent_code": "SA", "latitude": "-8.28333", "longitude": "-35.97611", "timezone": "America/Recife", "postal_code": "55000-000"}
{"network": "2400:2200:361:7b00::/56", "city": "Rokuch\u014d", "region": "Tokyo", "region_code": "13", "country": "Japan", "country_code": "JP", "continent": "Asia", "continent_code": "AS", "latitude": "35.78341", "longitude": "139.81967", "timezone": "Asia/Tokyo", "postal_code": "121-0073"}
{"network": "177.147.207.160/28", "city": "S\u00e3o Paulo", "region": "S\u00e3o Paulo", "region_code": "SP", "country": "Brazil", "country_code": "BR", "continent": "South America", "continent_code": "SA", "latitude": "-23.5475", "longitude": "-46.63611", "timezone": "America/Sao_Paulo", "postal_code": "01000-000"}
{"network": "2804:7f3:91b6::/47", "city": "S\u00e3o Paulo", "region": "S\u00e3o Paulo", "region_code": "SP", "country": "Brazil", "country_code": "BR", "continent": "South America", "continent_code": "SA", "latitude": "-23.5475", "longitude": "-46.63611", "timezone": "America/Sao_Paulo", "postal_code": "01000-000"}
{"network": "174.218.199.192/30", "city": "Ashburn", "region": "Virginia", "region_code": "VA", "country": "United States", "country_code": "US", "continent": "North America", "continent_code": "NA", "latitude": "39.04372", "longitude": "-77.48749", "timezone": "America/New_York", "postal_code": "20147"}
{"network": "115.179.103.96/29", "city": "Nagoya", "region": "Aichi", "region_code": "23", "country": "Japan", "country_code": "JP", "continent": "Asia", "continent_code": "AS", "latitude": "35.18147", "longitude": "136.90641", "timezone": "Asia/Tokyo", "postal_code": "460-0002"}
{"network": "2409:408a:81:e600::/56", "city": "Patna", "region": "Bihar", "region_code": "BR", "country": "India", "country_code": "IN", "continent": "Asia", "continent_code": "AS", "latitude": "25.59408", "longitude": "85.13563", "timezone": "Asia/Kolkata", "postal_code": "800001"}
{"network": "17.41.51.0/25", "city": "Seattle", "region": "Washington", "region_code": "WA", "country": "United States", "country_code": "US", "continent": "North America", "continent_code": "NA", "latitude": "47.60621", "longitude": "-122.33207", "timezone": "America/Los_Angeles", "postal_code": "98101"}
{"network": "62.19.163.8/30", "city": "Turin", "region": "Piedmont", "region_code": "21", "country": "Italy", "country_code": "IT", "continent": "Europe", "continent_code": "EU", "latitude": "45.07049", "longitude": "7.68682", "timezone": "Europe/Rome", "postal_code": "10100"}
{"network": "2a02:2f04:d:133c::/63", "city": "T\u00e2rgu-Mure\u015f", "region": "Mure\u0219 County", "region_code": "MS", "country": "Romania", "country_code": "RO", "continent": "Europe", "continent_code": "EU", "latitude": "46.54245", "longitude": "24.55747", "timezone": "Europe/Bucharest", "postal_code": "540003"}
{"network": "126.132.30.42/31", "city": "Yokohama", "region": "Kanagawa", "region_code": "14", "country": "Japan", "country_code": "JP", "continent": "Asia", "continent_code": "AS", "latitude": "35.43333", "longitude": "139.65", "timezone": "Asia/Tokyo", "postal_code": "220-8588"}
{"network": "2a02:3100:220e:b900::/56", "city": "Berlin", "region": "Berlin", "region_code": "BE", "country": "Germany", "country_code": "DE", "continent": "Europe", "continent_code": "EU", "latitude": "52.52437", "longitude": "13.41053", "timezone": "Europe/Berlin", "postal_code": "10119"}
{"network": "2408:8710:d0:1800::/53", "city": "Shanghai", "region": "Shanghai", "region_code": "SH", "country": "China", "country_code": "CN", "continent": "Asia", "continent_code": "AS", "latitude": "31.22222", "longitude": "121.45806", "timezone": "Asia/Shanghai", "postal_code": "200000"}
{"network": "2001:b07:6472:6cb0::/60", "city": "Castrovillari", "region": "Calabria", "region_code": "78", "country": "Italy", "country_code": "IT", "continent": "Europe", "continent_code": "EU", "latitude": "39.81632", "longitude": "16.20183", "timezone": "Europe/Rome", "postal_code": "87012"}
{"network": "2001:4dd0:af14:56dd::/64", "city": "Cece", "region": "Fej\u00e9r", "region_code": "FE", "country": "Hungary", "country_code": "HU", "continent": "Europe", "continent_code": "EU", "latitude": "46.77056", "longitude": "18.62826", "timezone": "Europe/Budapest", "postal_code": "7013"}
{"network": "57.123.230.248/29", "city": "New York City", "region": "New York", "region_code": "NY", "country": "United States", "country_code": "US", "continent": "North America", "continent_code": "NA", "latitude": "40.71427", "longitude": "-74.00597", "timezone": "America/New_York", "postal_code": "10001"}
{"network": "71.211.170.178", "city": "Golden", "region": "Colorado", "region_code": "CO", "country": "United States", "country_code": "US", "continent": "North America", "continent_code": "NA", "latitude": "39.75554", "longitude": "-105.2211", "timezone": "America/Denver", "postal_code": "80402"}
{"network": "68.33.212.120", "city": "White Marsh", "region": "Maryland", "region_code": "MD", "country": "United States", "country_code": "US", "continent": "North America", "continent_code": "NA", "latitude": "39.38372", "longitude": "-76.43218", "timezone": "America/New_York", "postal_code": "21162"}
{"network": "2402:3a80:408:700::/56", "city": "N\u0101gercoil", "region": "Tamil Nadu", "region_code": "TN", "country": "India", "country_code": "IN", "continent": "Asia", "continent_code": "AS", "latitude": "8.17899", "longitude": "77.43227", "timezone": "Asia/Kolkata", "postal_code": "629002"}
{"network": "32.115.41.158", "city": "Panam\u00e1", "region": "Panam\u00e1", "region_code": "8", "country": "Panama", "country_code": "PA", "continent": "North America", "continent_code": "NA", "latitude": "8.9936", "longitude": "-79.51973", "timezone": "America/Panama", "postal_code": "07113"}
{"network": "206.172.149.104/30", "city": "Amos", "region": "Quebec", "region_code": "QC", "country": "Canada", "country_code": "CA", "continent": "North America", "continent_code": "NA", "latitude": "48.56688", "longitude": "-78.11624", "timezone": "America/Toronto", "postal_code": "J9T"}
{"network": "2a09:bac5:eb5:1d00::/56", "city": "San Francisco", "region": "California", "region_code": "CA", "country": "United States", "country_code": "US", "continent": "North America", "continent_code": "NA", "latitude": "37.7621", "longitude": "-122.3971", "timezone": "America/Los_Angeles", "postal_code": "94107"}
{"network": "2601:985:d00:c600::/55", "city": "York", "region": "Pennsylvania", "region_code": "PA", "country": "United States", "country_code": "US", "continent": "North America", "continent_code": "NA", "latitude": "39.9626", "longitude": "-76.72774", "timezone": "America/New_York", "postal_code": "17401"}
{"network": "240e:361:8264:4000::/50", "city": "Shanghai", "region": "Shanghai", "region_code": "SH", "country": "China", "country_code": "CN", "continent": "Asia", "continent_code": "AS", "latitude": "31.22222", "longitude": "121.45806", "timezone": "Asia/Shanghai", "postal_code": "200000"}
{"network": "2a0c:5a81:6403:a704::/62", "city": "M\u00f3stoles", "region": "Madrid", "region_code": "MD", "country": "Spain", "country_code": "ES", "continent": "Europe", "continent_code": "EU", "latitude": "40.32234", "longitude": "-3.86496", "timezone": "Europe/Madrid", "postal_code": "28930"}
{"network": "240e:333:30ff:2c00::/54", "city": "Shanghai", "region": "Shanghai", "region_code": "SH", "country": "China", "country_code": "CN", "continent": "Asia", "continent_code": "AS", "latitude": "31.22222", "longitude": "121.45806", "timezone": "Asia/Shanghai", "postal_code": "200000"}
{"network": "2a02:c7f:9478:b800::/53", "city": "London", "region": "England", "region_code": "ENG", "country": "United Kingdom", "country_code": "GB", "continent": "Europe", "continent_code": "EU", "latitude": "51.50853", "longitude": "-0.12574", "timezone": "Europe/London", "postal_code": "E1W"}
{"network": "184.13.60.46", "city": "Winfield", "region": "West Virginia", "region_code": "WV", "country": "United States", "country_code": "US", "continent": "North America", "continent_code": "NA", "latitude": "38.53314", "longitude": "-81.89347", "timezone": "America/New_York", "postal_code": "25213"}
{"network": "200.75.177.164/30", "city": "Curvelo", "region": "Minas Gerais", "region_code": "MG", "country": "Brazil", "country_code": "BR", "continent": "South America", "continent_code": "SA", "latitude": "-18.75639", "longitude": "-44.43083", "timezone": "America/Sao_Paulo", "postal_code": "35790-000"}