{"network": "2600:1012:b117:f700::/56", "city": "Indio", "region": "California", "region_code": "CA", "country": "United States", "country_code": "US", "continent": "North America", "continent_code": "NA", "latitude": "33.7207", "longitude": "-116.21677", "timezone": "America/Los_Angeles", "postal_code": "92201"}
{"network": "101.98.238.232/31", "city": "Auckland", "region": "Auckland", "region_code": "AUK", "country": "New Zealand", "country_code": "NZ", "continent": "Oceania", "continent_code": "OC", "latitude": "-36.84853", "longitude": "174.76349", "timezone": "Pacific/Auckland", "postal_code": "1010"}
{"network": "2600:5c00:4510::/48", "city": "Los Angeles", "region": "California", "region_code": "CA", "country": "United States", "country_code": "US", "continent": "North America", "continent_code": "NA", "latitude": "34.0434", "longitude": "-118.2716", "timezone": "America/Los_Angeles", "postal_code": "90015"}
{"network": "240e:b60:690:e400::/55", "city": "Shanghai", "region": "Shanghai", "region_code": "SH", "country": "China", "country_code": "CN", "continent": "Asia", "continent_code": "AS", "latitude": "31.22222", "longitude": "121.45806", "timezone": "Asia/Shanghai", "postal_code": "200000"}
{"network": "31.48.171.154", "city": "Pencoed", "region": "Wales", "region_code": "WLS", "country": "United Kingdom", "country_code": "GB", "continent": "Europe", "continent_code": "EU", "latitude": "51.52371", "longitude": "-3.50016", "timezone": "Europe/London", "postal_code": "CF35"}
{"network": "2409:4063:6c8c:e400::/56", "city": "Gond\u0101 City", "region": "Uttar Pradesh", "region_code": "UP", "country": "India", "country_code": "IN", "continent": "Asia", "continent_code": "AS", "latitude": "27.13181", "longitude": "81.95332", "timezone": "Asia/Kolkata", "postal_code": "271003"}
{"network": "240e:362:a833:b000::/52", "city": "Shanghai", "region": "Shanghai", "region_code": "SH", "country": "China", "country_code": "CN", "continent": "Asia", "continent_code": "AS", "latitude": "31.22222", "longitude": "121.45806", "timezone": "Asia/Shanghai", "postal_code": "200000"}
{"network": "189.19.186.196/31", "city": "S\u00e3o Paulo", "region": "S\u00e3o Paulo", "region_code": "SP", "country": "Brazil", "country_code": "BR", "continent": "South America", "continent_code": "SA", "latitude": "-23.5475", "longitude": "-46.63611", "timezone": "America/Sao_Paulo", "postal_code": "01000-000"}
{"network": "240f:66:e580::/43", "city": "Kitamoto", "region": "Saitama", "region_code": "11", "country": "Japan", "country_code": "JP", "continent": "Asia", "continent_code": "AS", "latitude": "36.03322", "longitude": "139.53775", "timezone": "Asia/Tokyo", "postal_code": "364-0006"}
{"network": "2605:6000:0:8::f:4a8a/127", "city": "Englewood", "region": "Colorado", "region_code": "CO", "country": "United States", "country_code": "US", "continent": "North America", "continent_code": "NA", "latitude": "39.6123", "longitude": "-104.8799", "timezone": "America/Denver", "postal_code": "80111"}
{"network": "86.177.99.244/31", "city": "Clacton-on-Sea", "region": "England", "region_code": "ENG", "country": "United Kingdom", "country_code": "GB", "continent": "Europe", "continent_code": "EU", "latitude": "51.78967", "longitude": "1.15597", "timezone": "Europe/London", "postal_code": "CO15"}
{"network": "2603:b050:40ba::/48", "city": "New Richmond", "region": "Wisconsin", "region_code": "WI", "country": "United States", "country_code": "US", "continent": "North America", "continent_code": "NA", "latitude": "45.12302", "longitude": "-92.53659", "timezone": "America/Chicago", "postal_code": "54017"}
{"network": "2408:8710:d0:1800::/53", "city": "Shanghai", "region": "Shanghai", "region_code": "SH", "country": "China", "country_code": "CN", "continent": "Asia", "continent_code": "AS", "latitude": "31.22222", "longitude": "121.45806", "timezone": "Asia/Shanghai", "postal_code": "200000"}
{"network": "68.191.122.124/30", "city": "Sugar Hill", "region": "Georgia", "region_code": "GA", "country": "United States", "country_code": "US", "continent": "North America", "continent_code": "NA", "latitude": "34.10649", "longitude": "-84.03352", "timezone": "America/New_York", "postal_code": "30518"}
{"network": "84.80.93.46/31", "city": "Pijnacker", "region": "South Holland", "region_code": "ZH", "country": "Netherlands", "country_code": "NL", "continent": "Europe", "continent_code": "EU", "latitude": "52.01954", "longitude": "4.42946", "timezone": "Europe/Amsterdam", "postal_code": "2641"}
{"network": "2001:1890:139e:7300::/56", "city": "Middletown", "region": "New Jersey", "region_code": "NJ", "country": "United States", "country_code": "US", "continent": "North America", "continent_code": "NA", "latitude": "40.39428", "longitude": "-74.11709", "timezone": "America/New_York", "postal_code": "07748"}
{"network": "2409:8950:64f0:4500::/56", "city": "Shanghai", "region": "Shanghai", "region_code": "SH", "country": "China", "country_code": "CN", "continent": "Asia", "continent_code": "AS", "latitude": "31.22222", "longitude": "121.45806", "timezone": "Asia/Shanghai", "postal_code": "200000"}
{"network": "2409:8a55:5a01:2376::/64", "city": "Shanghai", "region": "Shanghai", "region_code": "SH", "country": "China", "country_code": "CN", "continent": "Asia", "continent_code": "AS", "latitude": "31.22222", "longitude": "121.45806", "timezone": "Asia/Shanghai", "postal_code": "200000"}
{"network": "201.119.30.120/31", "city": "Mexico City", "region": "Mexico City", "region_code": "CMX", "country": "Mexico", "country_code": "MX", "continent": "North America", "continent_code": "NA", "latitude": "19.42847", "longitude": "-99.12766", "timezone": "America/Mexico_City", "postal_code": "03020"}
{"network": "2402:3a80:52c:2900::/56", "city": "Kanchipuram", "region": "Tamil Nadu", "region_code": "TN", "country": "India", "country_code": "IN", "continent": "Asia", "continent_code": "AS", "latitude": "12.83515", "longitude": "79.70006", "timezone": "Asia/Kolkata", "postal_code": "631502"}
{"network": "2001:468:1f0c::33", "city": "Washington", "region": "District of Columbia", "region_code": "DC", "country": "United States", "country_code": "US", "continent": "North America", "continent_code": "NA", "latitude": "38.89511", "longitude": "-77.03637", "timezone": "America/New_York", "postal_code": "20004"}
{"network": "2804:46a4:101d::/51", "city": "Viam\u00e3o", "region": "Rio Grande do Sul", "region_code": "RS", "country": "Brazil", "country_code": "BR", "continent": "South America", "continent_code": "SA", "latitude": "-30.08111", "longitude": "-51.02333", "timezone": "America/Sao_Paulo", "postal_code": "94400-000"}
{"network": "173.206.75.163", "city": "Hamilton", "region": "Ontario", "region_code": "ON", "country": "Canada", "country_code": "CA", "continent": "North America", "continent_code": "NA", "latitude": "43.25011", "longitude": "-79.84963", "timezone": "America/Toronto", "postal_code": "L8M"}
{"network": "240e:305:19cc:8800::/54", "city": "Shanghai", "region": "Shanghai", "region_code": "SH", "country": "China", "country_code": "CN", "continent": "Asia", "continent_code": "AS", "latitude": "31.22222", "longitude": "121.45806", "timezone": "Asia/Shanghai", "postal_code": "200000"}
{"network": "2001:4430:5097:ea00::/55", "city": "Paripark", "region": "Seoul", "region_code": "11", "country": "South Korea", "country_code": "KR", "continent": "Asia", "continent_code": "AS", "latitude": "37.53497", "longitude": "126.87661", "timezone": "Asia/Seoul", "postal_code": "07960"}
{"network": "2001:67c:17ad::/48", "city": "Amsterdam", "region": "North Holland", "region_code": "NH", "country": "Netherlands", "country_code": "NL", "continent": "Europe", "continent_code": "EU", "latitude": "52.37403", "longitude": "4.88969", "timezone": "Europe/Amsterdam", "postal_code": "1012"}
{"network": "27.59.228.242/31", "city": "Kanayannur", "region": "Kerala", "region_code": "KL", "country": "India", "country_code": "IN", "continent": "Asia", "continent_code": "AS", "latitude": "9.96667", "longitude": "76.26667", "timezone": "Asia/Kolkata", "postal_code": "683514"}
{"network": "115.87.249.248/31", "city": "Bangkok", "region": "Bangkok", "region_code": "10", "country": "Thailand", "country_code": "TH", "continent": "Asia", "continent_code": "AS", "latitude": "13.75398", "longitude": "100.50144", "timezone": "Asia/Bangkok", "postal_code": "10200"}
{"network": "2a02:c7c:ee99:ee00::/64", "city": "Tamworth", "region": "England", "region_code": "ENG", "country": "United Kingdom", "country_code": "GB", "continent": "Europe", "continent_code": "EU", "latitude": "52.63399", "longitude": "-1.69587", "timezone": "Europe/London", "postal_code": "B79"}
{"network": "112.70.176.0/24", "city": "Osaka", "region": "Osaka", "region_code": "27", "country": "Japan", "country_code": "JP", "continent": "Asia", "continent_code": "AS", "latitude": "34.69379", "longitude": "135.50107", "timezone": "Asia/Tokyo", "postal_code": "543-0062"}
{"network": "240e:430:5a10:58a0::/59", "city": "Chengdu", "region": "Sichuan", "region_code": "SC", "country": "China", "country_code": "CN", "continent": "Asia", "continent_code": "AS", "latitude": "30.66667", "longitude": "104.06667", "timezone": "Asia/Shanghai", "postal_code": "610000"}
{"network": "240e:379:5ed1:f000::/53", "city": "Shanghai", "region": "Shanghai", "region_code": "SH", "country": "China", "country_code": "CN", "continent": "Asia", "continent_code": "AS", "latitude": "31.22222", "longitude": "121.45806", "timezone": "Asia/Shanghai", "postal_code": "200000"}
{"network": "2408:8206:784e:2934::/64", "city": "Shanghai", "region": "Shanghai", "region_code": "SH", "country": "China", "country_code": "CN", "continent": "Asia", "continent_code": "AS", "latitude": "31.22222", "longitude": "121.45806", "timezone": "Asia/Shanghai", "postal_code": "200000"}
{"network": "2409:8a0c:aa02::/47", "city": "Shanghai", "region": "Shanghai", "region_code": "SH", "country": "China", "country_code": "CN", "continent": "Asia", "continent_code": "AS", "latitude": "31.22222", "longitude": "121.45806", "timezone": "Asia/Shanghai", "postal_code": "200000"}
{"network": "2a02:2250:210:40::/58", "city": "Berlin", "region": "Berlin", "region_code": "BE", "country": "Germany", "country_code": "DE", "continent": "Europe", "continent_code": "EU", "latitude": "52.52437", "longitude": "13.41053", "timezone": "Europe/Berlin", "postal_code": "10119"}
{"network": "153.231.84.64/29", "city": "Sapporo", "region": "Hokkaido", "region_code": "01", "country": "Japan", "country_code": "JP", "continent": "Asia", "continent_code": "AS", "latitude": "43.06667", "longitude": "141.35", "timezone": "Asia/Tokyo", "postal_code": "065-0010"}
{"network": "90.194.7.216/30", "city": "Canvey Island", "region": "England", "region_code": "ENG", "country": "United Kingdom", "country_code": "GB", "continent": "Europe", "continent_code": "EU", "latitude": "51.52199", "longitude": "0.5809", "timezone": "Europe/London", "postal_code": "SS8"}
{"network": "88.157.139.109", "city": "Braga", "region": "Braga", "region_code": "03", "country": "Portugal", "country_code": "PT", "continent": "Europe", "continent_code": "EU", "latitude": "41.55032", "longitude": "-8.42005", "timezone": "Europe/Lisbon", "postal_code": "4700-000"}
{"network": "2409:40c2:102a:ec00::/56", "city": "Pimpri", "region": "Maharashtra", "region_code": "MH", "country": "India", "country_code": "IN", "continent": "Asia", "continent_code": "AS", "latitude": "18.62292", "longitude": "73.80696", "timezone": "Asia/Kolkata", "postal_code": "412303"}
{"network": "2402:3a80:1cfa:6800::/53", "city": "Ahmedabad", "region": "Gujarat", "region_code": "GJ", "country": "India", "country_code": "IN", "continent": "Asia", "continent_code": "AS", "latitude": "23.02579", "longitude": "72.58727", "timezone": "Asia/Kolkata", "postal_code": "380001"}
{"network": "240e:460:ad94:400::/55", "city": "Shanghai", "region": "Shanghai", "region_code": "SH", "country": "China", "country_code": "CN", "continent": "Asia", "continent_code": "AS", "latitude": "31.22222", "longitude": "121.45806", "timezone": "Asia/Shanghai", "postal_code": "200000"}
{"network": "240f:50:ac2a:2000::/51", "city": "Hachinohe", "region": "Aomori", "region_code": "02", "country": "Japan", "country_code": "JP", "continent": "Asia", "continent_code": "AS", "latitude": "40.5", "longitude": "141.5", "timezone": "Asia/Tokyo", "postal_code": "031-0000"}
{"network": "212.156.90.56/29", "city": "Eski\u015fehir", "region": "Eski\u015fehir", "region_code": "26", "country": "Turkey", "country_code": "TR", "continent": "Asia", "continent_code": "AS", "latitude": "39.77667", "longitude": "30.52056", "timezone": "Europe/Istanbul", "postal_code": "26010"}
{"network": "180.9.111.227", "city": "Tsu", "region": "Mie", "region_code": "24", "country": "Japan", "country_code": "JP", "continent": "Asia", "continent_code": "AS", "latitude": "34.73333", "longitude": "136.51667", "timezone": "Asia/Tokyo", "postal_code": "514-0002"}
{"network": "14.243.65.99", "city": "H\u01b0\u01a1ng Tr\u00e0", "region": "Th\u1eeba Thi\u00ean Hu\u1ebf Province", "region_code": "26", "country": "Vietnam", "country_code": "VN", "continent": "Asia", "continent_code": "AS", "latitude": "16.52539", "longitude": "107.4755", "timezone": "Asia/Bangkok", "postal_code": "49450"}
{"network": "2001:4430:5036:ba00::/55", "city": "Paripark", "region": "Seoul", "region_code": "11", "country": "South Korea", "country_code": "KR", "continent": "Asia", "continent_code": "AS", "latitude": "37.53497", "longitude": "126.87661", "timezone": "Asia/Seoul", "postal_code": "07960"}
{"network": "2a02:a03f:a7a9:7380::/57", "city": "Li\u00e8ge", "region": "Wallonia", "region_code": "WAL", "country": "Belgium", "country_code": "BE", "continent": "Europe", "continent_code": "EU", "latitude": "50.63373", "longitude": "5.56749", "timezone": "Europe/Brussels", "postal_code": "4000"}
{"network": "37.111.158.32/28", "city": "Shahkot", "region": "Punjab", "region_code": "PB", "country": "Pakistan", "country_code": "PK", "continent": "Asia", "continent_code": "AS", "latitude": "31.5709", "longitude": "73.48531", "timezone": "Asia/Karachi", "postal_code": "39630"}
{"network": "187.40.98.112/30", "city": "S\u00e3o Lu\u00eds", "region": "Maranh\u00e3o", "region_code": "MA", "country": "Brazil", "country_code": "BR", "continent": "South America", "continent_code": "SA", "latitude": "-2.52972", "longitude": "-44.30278", "timezone": "America/Fortaleza", "postal_code": "65000-000"}
{"network": "115.179.103.96/29", "city": "Nagoya", "region": "Aichi", "region_code": "23", "country": "Japan", "country_code": "JP", "continent": "Asia", "continent_code": "AS", "latitude": "35.18147", "longitude": "136.90641", "timezone": "Asia/Tokyo", "postal_code": "460-0002"}
{"network": "2408:821b:8c00:900::/61", "city": "Shenzhen", "region": "Guangdong", "region_code": "GD", "country": "China", "country_code": "CN", "continent": "Asia", "continent_code": "AS", "latitude": "22.54554", "longitude": "114.0683", "timezone": "Asia/Shanghai", "postal_code": "518000"}
{"network": "80.93.232.128/27", "city": "Belgrade", "region": "Central Serbia", "region_code": "SE", "country": "Serbia", "country_code": "RS", "continent": "Europe", "continent_code": "EU", "latitude": "44.80401", "longitude": "20.46513", "timezone": "Europe/Belgrade", "postal_code": "11000"}
{"network": "2408:841b:940::/42", "city": "Shanghai", "region": "Shanghai", "region_code": "SH", "country": "China", "country_code": "CN", "continent": "Asia", "continent_code": "AS", "latitude": "31.22222", "longitude": "121.45806", "timezone": "Asia/Shanghai", "postal_code": "200000"}
{"network": "46.22.99.228", "city": "Grindav\u00edk", "region": "Southern Peninsula", "region_code": "2", "country": "Iceland", "country_code": "IS", "continent": "Europe", "continent_code": "EU", "latitude": "63.83849", "longitude": "-22.43931", "timezone": "Atlantic/Reykjavik", "postal_code": "240"}
{"network": "2a09:bac5:723c:1000::/52", "city": "West Point", "region": "Georgia", "region_code": "GA", "country": "United States", "country_code": "US", "continent": "North America", "continent_code": "NA", "latitude": "32.87791", "longitude": "-85.18327", "timezone": "America/New_York", "postal_code": "31833"}
{"network": "75.130.49.136/30", "city": "Clarksville", "region": "Tennessee", "region_code": "TN", "country": "United States", "country_code": "US", "continent": "North America", "continent_code": "NA", "latitude": "36.5853", "longitude": "-87.4186", "timezone": "America/Chicago", "postal_code": "37042"}
{"network": "126.198.36.136/30", "city": "Osaka", "region": "Osaka", "region_code": "27", "country": "Japan", "country_code": "JP", "continent": "Asia", "continent_code": "AS", "latitude": "34.69379", "longitude": "135.50107", "timezone": "Asia/Tokyo", "postal_code": "543-0062"}
{"network": "2a02:c7f:9478:b800::/53", "city": "London", "region": "England", "region_code": "ENG", "country": "United Kingdom", "country_code": "GB", "continent": "Europe", "continent_code": "EU", "latitude": "51.50853", "longitude": "-0.12574", "timezone": "Europe/London", "postal_code": "E1W"}
{"network": "2a0a:a544:10d9:2000::/51", "city": "K\u00f6ln", "region": "North Rhine-Westphalia", "region_code": "NW", "country": "Germany", "country_code": "DE", "continent": "Europe", "continent_code": "EU", "latitude": "50.9746", "longitude": "6.8713", "timezone": "Europe/Berlin", "postal_code": "50829"}
{"network": "240e:361:1b27:6c00::/54", "city": "Shanghai", "region": "Shanghai", "region_code": "SH", "country": "China", "country_code": "CN", "continent": "Asia", "continent_code": "AS", "latitude": "31.22222", "longitude": "121.45806", "timezone": "Asia/Shanghai", "postal_code": "200000"}
{"network": "90.210.161.180/31", "city": "Manchester", "region": "England", "region_code": "ENG", "country": "United Kingdom", "country_code": "GB", "continent": "Europe", "continent_code": "EU", "latitude": "53.48095", "longitude": "-2.23743", "timezone": "Europe/London", "postal_code": "M1"}
{"network": "2a13:ef41:a2f5::/48", "city": "Biskra", "region": "Biskra", "region_code": "07", "country": "Algeria", "country_code": "DZ", "continent": "Africa", "continent_code": "AF", "latitude": "34.85038", "longitude": "5.72805", "timezone": "Africa/Algiers", "postal_code": "07016"}
{"network": "2409:8a02:9054:c400::/54", "city": "Shanghai", "region": "Shanghai", "region_code": "SH", "country": "China", "country_code": "CN", "continent": "Asia", "continent_code": "AS", "latitude": "31.22222", "longitude": "121.45806", "timezone": "Asia/Shanghai", "postal_code": "200000"}
{"network": "2409:40e1:f:c000::/56", "city": "Baharampur", "region": "West Bengal", "region_code": "WB", "country": "India", "country_code": "IN", "continent": "Asia", "continent_code": "AS", "latitude": "24.10473", "longitude": "88.25155", "timezone": "Asia/Kolkata", "postal_code": "713123"}
{"network": "2408:8422:2f08:c000::/54", "city": "Shanghai", "region": "Shanghai", "region_code": "SH", "country": "China", "country_code": "CN", "continent": "Asia", "continent_code": "AS", "latitude": "31.22222", "longitude": "121.45806", "timezone": "Asia/Shanghai", "postal_code": "200000"}
{"network": "2802:8012:4025:f000::/52", "city": "Buenos Aires", "region": "Buenos Aires F.D.", "region_code": "C", "country": "Argentina", "country_code": "AR", "continent": "South America", "continent_code": "SA", "latitude": "-34.61315", "longitude": "-58.37723", "timezone": "America/Argentina/Buenos_Aires", "postal_code": "1871"}
{"network": "2409:4063:228a:c000::/56", "city": "Lalganj", "region": "Uttar Pradesh", "region_code": "UP", "country": "India", "country_code": "IN", "continent": "Asia", "continent_code": "AS", "latitude": "25.799", "longitude": "82.99768", "timezone": "Asia/Kolkata", "postal_code": "276127"}
{"network": "240e:325:8376::/48", "city": "Shanghai", "region": "Shanghai", "region_code": "SH", "country": "China", "country_code": "CN", "continent": "Asia", "continent_code": "AS", "latitude": "31.22222", "longitude": "121.45806", "timezone": "Asia/Shanghai", "postal_code": "200000"}
{"network": "71.223.50.86", "city": "Mesa", "region": "Arizona", "region_code": "AZ", "country": "United States", "country_code": "US", "continent": "North America", "continent_code": "NA", "latitude": "33.42227", "longitude": "-111.82264", "timezone": "America/Phoenix", "postal_code": "85214"}
{"network": "2408:841c:7932::/47", "city": "Shanghai", "region": "Shanghai", "region_code": "SH", "country": "China", "country_code": "CN", "continent": "Asia", "continent_code": "AS", "latitude": "31.22222", "longitude": "121.45806", "timezone": "Asia/Shanghai", "postal_code": "200000"}
{"network": "2409:8a6a:e41:7100::/56", "city": "Guiyang", "region": "Guizhou", "region_code": "GZ", "country": "China", "country_code": "CN", "continent": "Asia", "continent_code": "AS", "latitude": "26.58333", "longitude": "106.71667", "timezone": "Asia/Shanghai", "postal_code": "550000"}
{"network": "60.117.94.38/31", "city": "Yokohama", "region": "Kanagawa", "region_code": "14", "country": "Japan", "country_code": "JP", "continent": "Asia", "continent_code": "AS", "latitude": "35.43333", "longitude": "139.65", "timezone": "Asia/Tokyo", "postal_code": "220-8588"}
{"network": "2804:4bc:8451:8000::/49", "city": "Moscow", "region": "Moscow", "region_code": "MOW", "country": "Russia", "country_code": "RU", "continent": "Europe", "continent_code": "EU", "latitude": "55.75222", "longitude": "37.61556", "timezone": "Europe/Moscow", "postal_code": "101000"}
{"network": "2a01:c22:c200:eede::/64", "city": "Berlin", "region": "Berlin", "region_code": "BE", "country": "Germany", "country_code": "DE", "continent": "Europe", "continent_code": "EU", "latitude": "52.52437", "longitude": "13.41053", "timezone": "Europe/Berlin", "postal_code": "10119"}
{"network": "2804:29a0:26f:e800::/53", "city": "S\u00e3o Paulo", "region": "S\u00e3o Paulo", "region_code": "SP", "country": "Brazil", "country_code": "BR", "continent": "South America", "continent_code": "SA", "latitude": "-23.5475", "longitude": "-46.63611", "timezone": "America/Sao_Paulo", "postal_code": "01000-000"}
{"network": "2a00:23c6:170e:6400::/56", "city": "Conwy", "region": "Wales", "region_code": "WLS", "country": "United Kingdom", "country_code": "GB", "continent": "Europe", "continent_code": "EU", "latitude": "53.28077", "longitude": "-3.83039", "timezone": "Europe/London", "postal_code": "LL32"}
{"network": "60.112.6.112/28", "city": "Niiza", "region": "Saitama", "region_code": "11", "country": "Japan", "country_code": "JP", "continent": "Asia", "continent_code": "AS", "latitude": "35.82088", "longitude": "139.55791", "timezone": "Asia/Tokyo", "postal_code": "352-0006"}
{"network": "2401:4900:25f5:d580::/58", "city": "M\u0101tt\u016br", "region": "Tamil Nadu", "region_code": "TN", "country": "India", "country_code": "IN", "continent": "Asia", "continent_code": "AS", "latitude": "11.32147", "longitude": "79.20245", "timezone": "Asia/Kolkata", "postal_code": "621804"}
{"network": "2a01:4f8:160:2088::/62", "city": "Falkenstein", "region": "Saxony", "region_code": "SN", "country": "Germany", "country_code": "DE", "continent": "Europe", "continent_code": "EU", "latitude": "50.47788", "longitude": "12.37129", "timezone": "Europe/Berlin", "postal_code": "08520"}
{"network": "2a02:a446:4f33:10::/60", "city": "Amsterdam", "region": "North Holland", "region_code": "NH", "country": "Netherlands", "country_code": "NL", "continent": "Europe", "continent_code": "EU", "latitude": "52.37403", "longitude": "4.88969", "timezone": "Europe/Amsterdam", "postal_code": "1012"}
{"network": "93.57.73.128/30", "city": "Milan", "region": "Lombardy", "region_code": "25", "country": "Italy", "country_code": "IT", "continent": "Europe", "continent_code": "EU", "latitude": "45.46427", "longitude": "9.18951", "timezone": "Europe/Rome", "postal_code": "20121"}
{"network": "2804:378:822f:800::/53", "city": "Nova Roma do Sul", "region": "Rio Grande do Sul", "region_code": "RS", "country": "Brazil", "country_code": "BR", "continent": "South America", "continent_code": "SA", "latitude": "-28.99028", "longitude": "-51.40806", "timezone": "America/Sao_Paulo", "postal_code": "95260-000"}
{"network": "240e:356:b8:f00::/56", "city": "Shanghai", "region": "Shanghai", "region_code": "SH", "country": "China", "country_code": "CN", "continent": "Asia", "continent_code": "AS", "latitude": "31.22222", "longitude": "121.45806", "timezone": "Asia/Shanghai", "postal_code": "200000"}
{"network": "2a02:a03f:a0a0:bf40::/58", "city": "Li\u00e8ge", "region": "Wallonia", "region_code": "WAL", "country": "Belgium", "country_code": "BE", "continent": "Europe", "continent_code": "EU", "latitude": "50.63373", "longitude": "5.56749", "timezone": "Europe/Brussels", "postal_code": "4000"}
{"network": "216.239.119.64/26", "city": "Miami", "region": "Florida", "region_code": "FL", "country": "United States", "country_code": "US", "continent": "North America", "continent_code": "NA", "latitude": "25.77427", "longitude": "-80.19366", "timezone": "America/New_York", "postal_code": "33101"}
{"network": "2408:841a:5230:8200::/55", "city": "Shanghai", "region": "Shanghai", "region_code": "SH", "country": "China", "country_code": "CN", "continent": "Asia", "continent_code": "AS", "latitude": "31.22222", "longitude": "121.45806", "timezone": "Asia/Shanghai", "postal_code": "200000"}
{"network": "2600:1014:1156:e000::/53", "city": "Ashburn", "region": "Virginia", "region_code": "VA", "country": "United States", "country_code": "US", "continent": "North America", "continent_code": "NA", "latitude": "39.04372", "longitude": "-77.48749", "timezone": "America/New_York", "postal_code": "20147"}
{"network": "240e:358:616d:a000::/51", "city": "Shanghai", "region": "Shanghai", "region_code": "SH", "country": "China", "country_code": "CN", "continent": "Asia", "continent_code": "AS", "latitude": "31.22222", "longitude": "121.45806", "timezone": "Asia/Shanghai", "postal_code": "200000"}
{"network": "2408:8207:61e2:2100::/56", "city": "Shanghai", "region": "Shanghai", "region_code": "SH", "country": "China", "country_code": "CN", "continent": "Asia", "continent_code": "AS", "latitude": "31.22222", "longitude": "121.45806", "timezone": "Asia/Shanghai", "postal_code": "200000"}
{"network": "2409:8950:1114:4000::/50", "city": "Shanghai", "region": "Shanghai", "region_code": "SH", "country": "China", "country_code": "CN", "continent": "Asia", "continent_code": "AS", "latitude": "31.22222", "longitude": "121.45806", "timezone": "Asia/Shanghai", "postal_code": "200000"}
{"network": "124.149.139.0/30", "city": "Sunshine Coast", "region": "Queensland", "region_code": "QLD", "country": "Australia", "country_code": "AU", "continent": "Oceania", "continent_code": "OC", "latitude": "-26.65682", "longitude": "153.07955", "timezone": "Australia/Brisbane", "postal_code": "4558"}
{"network": "98.108.153.240/29", "city": "Portland", "region": "Oregon", "region_code": "OR", "country": "United States", "country_code": "US", "continent": "North America", "continent_code": "NA", "latitude": "45.52345", "longitude": "-122.67621", "timezone": "America/Los_Angeles", "postal_code": "97204"}
{"network": "174.218.199.192/30", "city": "Ashburn", "region": "Virginia", "region_code": "VA", "country": "United States", "country_code": "US", "continent": "North America", "continent_code": "NA", "latitude": "39.04372", "longitude": "-77.48749", "timezone": "America/New_York", "postal_code": "20147"}
{"network": "2a07:ac83:7a49::/48", "city": "Moscow", "region": "Moscow", "region_code": "MOW", "country": "Russia", "country_code": "RU", "continent": "Europe", "continent_code": "EU", "latitude": "55.752", "longitude": "37.615", "timezone": "Europe/Moscow", "postal_code": "115419"}
{"network": "86.43.91.44/30", "city": "Dublin", "region": "Leinster", "region_code": "L", "country": "Ireland", "country_code": "IE", "continent": "Europe", "continent_code": "EU", "latitude": "53.33306", "longitude": "-6.24889", "timezone": "Europe/Dublin", "postal_code": "D02"}
{"network": "179.226.10.170", "city": "S\u00e3o Paulo", "region": "S\u00e3o Paulo", "region_code": "SP", "country": "Brazil", "country_code": "BR", "continent": "South America", "continent_code": "SA", "latitude": "-23.5475", "longitude": "-46.63611", "timezone": "America/Sao_Paulo", "postal_code": "01000-000"}
{"network": "216.158.243.204/30", "city": "Taos", "region": "New Mexico", "region_code": "NM", "country": "United States", "country_code": "US", "continent": "North America", "continent_code": "NA", "latitude": "36.40725", "longitude": "-105.57307", "timezone": "America/Denver", "postal_code": "87571"}
{"network": "2409:4071:6e83:ea00::/56", "city": "Narasimhar\u0101japura", "region": "Karnataka", "region_code": "KA", "country": "India", "country_code": "IN", "continent": "Asia", "continent_code": "AS", "latitude": "13.61075", "longitude": "75.512", "timezone": "Asia/Kolkata", "postal_code": "577134"}
{"network": "240f:64:7fcb:400::/54", "city": "Takasaki", "region": "Gunma", "region_code": "10", "country": "Japan", "country_code": "JP", "continent": "Asia", "continent_code": "AS", "latitude": "36.33333", "longitude": "139.01667", "timezone": "Asia/Tokyo", "postal_code": "300-3516"}
{"network": "2804:653c:4400::/38", "city": "Jequi\u00e9", "region": "Bahia", "region_code": "BA", "country": "Brazil", "country_code": "BR", "continent": "South America", "continent_code": "SA", "latitude": "-13.85875", "longitude": "-40.08512", "timezone": "America/Bahia", "postal_code": "45200-000"}