{"network": "86.166.61.130/31", "city": "Malpas", "region": "England", "region_code": "ENG", "country": "United Kingdom", "country_code": "GB", "continent": "Europe", "continent_code": "EU", "latitude": "53.01667", "longitude": "-2.76667", "timezone": "Europe/London", "postal_code": "SY14"}
{"network": "2001:470:1f2c:336::/64", "city": "Sydney", "region": "New South Wales", "region_code": "NSW", "country": "Australia", "country_code": "AU", "continent": "Oceania", "continent_code": "OC", "latitude": "-33.86785", "longitude": "151.20732", "timezone": "Australia/Sydney", "postal_code": "1001"}
{"network": "2a01:c22:b200:43a7::/64", "city": "Cece", "region": "Fej\u00e9r", "region_code": "FE", "country": "Hungary", "country_code": "HU", "continent": "Europe", "continent_code": "EU", "latitude": "46.77056", "longitude": "18.62826", "timezone": "Europe/Budapest", "postal_code": "7013"}
{"network": "195.122.52.0/22", "city": "Kidlington", "region": "England", "region_code": "ENG", "country": "United Kingdom", "country_code": "GB", "continent": "Europe", "continent_code": "EU", "latitude": "51.82166", "longitude": "-1.2886", "timezone": "Europe/London", "postal_code": "OX5"}
{"network": "200.103.255.180", "city": "Paranagu\u00e1", "region": "Paran\u00e1", "region_code": "PR", "country": "Brazil", "country_code": "BR", "continent": "South America", "continent_code": "SA", "latitude": "-25.51626", "longitude": "-48.52537", "timezone": "America/Sao_Paulo", "postal_code": "83200-000"}
{"network": "51.158.8.57", "city": "Amiens", "region": "Hauts-de-France", "region_code": "HDF", "country": "France", "country_code": "FR", "continent": "Europe", "continent_code": "EU", "latitude": "49.9", "longitude": "2.3", "timezone": "Europe/Paris", "postal_code": "80000"}
{"network": "58.108.151.3", "city": "Melbourne", "region": "Victoria", "region_code": "VIC", "country": "Australia", "country_code": "AU", "continent": "Oceania", "continent_code": "OC", "latitude": "-37.814", "longitude": "144.96332", "timezone": "Australia/Melbourne", "postal_code": "3000"}
{"network": "2a02:26f7:bcc8:5f49::/64", "city": "Rimini", "region": "Emilia-Romagna", "region_code": "45", "country": "Italy", "country_code": "IT", "continent": "Europe", "continent_code": "EU", "latitude": "44.05755", "longitude": "12.56528", "timezone": "Europe/Rome", "postal_code": "47900"}
{"network": "2804:2068:506:db00::/56", "city": "Rio de Janeiro", "region": "Rio de Janeiro", "region_code": "RJ", "country": "Brazil", "country_code": "BR", "continent": "South America", "continent_code": "SA", "latitude": "-22.90642", "longitude": "-43.18223", "timezone": "America/Sao_Paulo", "postal_code": "20000-000"}
{"network": "60.143.122.124/30", "city": "Kobe", "region": "Hy\u014dgo", "region_code": "28", "country": "Japan", "country_code": "JP", "continent": "Asia", "continent_code": "AS", "latitude": "34.6913", "longitude": "135.183", "timezone": "Asia/Tokyo", "postal_code": "761-4146"}
{"network": "209.92.125.84/30", "city": "Little Rock", "region": "Arkansas", "region_code": "AR", "country": "United States", "country_code": "US", "continent": "North America", "continent_code": "NA", "latitude": "34.7871", "longitude": "-92.4222", "timezone": "America/Chicago", "postal_code": "72212"}
{"network": "220.245.76.168/30", "city": "Sydney", "region": "New South Wales", "region_code": "NSW", "country": "Australia", "country_code": "AU", "continent": "Oceania", "continent_code": "OC", "latitude": "-33.86785", "longitude": "151.20732", "timezone": "Australia/Sydney", "postal_code": "1001"}
{"network": "2409:4042:270f:9b00::/56", "city": "Sindi", "region": "Maharashtra", "region_code": "MH", "country": "India", "country_code": "IN", "continent": "Asia", "continent_code": "AS", "latitude": "20.80509", "longitude": "78.88752", "timezone": "Asia/Kolkata", "postal_code": "442105"}
{"network": "2409:4089:a309:fc00::/56", "city": "Chhibr\u0101mau", "region": "Uttar Pradesh", "region_code": "UP", "country": "India", "country_code": "IN", "continent": "Asia", "continent_code": "AS", "latitude": "27.14872", "longitude": "79.50078", "timezone": "Asia/Kolkata", "postal_code": "209721"}
{"network": "189.38.240.61", "city": "S\u00e3o Paulo", "region": "S\u00e3o Paulo", "region_code": "SP", "country": "Brazil", "country_code": "BR", "continent": "South America", "continent_code": "SA", "latitude": "-23.5475", "longitude": "-46.63611", "timezone": "America/Sao_Paulo", "postal_code": "01000-000"}
{"network": "37.167.161.158/31", "city": "Lyon", "region": "Auvergne-Rh\u00f4ne-Alpes", "region_code": "ARA", "country": "France", "country_code": "FR", "continent": "Europe", "continent_code": "EU", "latitude": "45.74846", "longitude": "4.84671", "timezone": "Europe/Paris", "postal_code": "69000"}
{"network": "86.159.162.0/25", "city": "Doncaster", "region": "England", "region_code": "ENG", "country": "United Kingdom", "country_code": "GB", "continent": "Europe", "continent_code": "EU", "latitude": "53.52285", "longitude": "-1.13116", "timezone": "Europe/London", "postal_code": "DN1"}
{"network": "240e:341:17a3:e000::/53", "city": "Shanghai", "region": "Shanghai", "region_code": "SH", "country": "China", "country_code": "CN", "continent": "Asia", "continent_code": "AS", "latitude": "31.22222", "longitude": "121.45806", "timezone": "Asia/Shanghai", "postal_code": "200000"}
{"network": "117.192.55.144/30", "city": "Tirupati", "region": "Andhra Pradesh", "region_code": "AP", "country": "India", "country_code": "IN", "continent": "Asia", "continent_code": "AS", "latitude": "13.63551", "longitude": "79.41989", "timezone": "Asia/Kolkata", "postal_code": "517004"}
{"network": "203.221.237.195", "city": "Sydney", "region": "New South Wales", "region_code": "NSW", "country": "Australia", "country_code": "AU", "continent": "Oceania", "continent_code": "OC", "latitude": "-33.86785", "longitude": "151.20732", "timezone": "Australia/Sydney", "postal_code": "1001"}
{"network": "124.18.33.80/29", "city": "Nagoya", "region": "Aichi", "region_code": "23", "country": "Japan", "country_code": "JP", "continent": "Asia", "continent_code": "AS", "latitude": "35.18147", "longitude": "136.90641", "timezone": "Asia/Tokyo", "postal_code": "460-0002"}
{"network": "73.204.172.32/29", "city": "Lake Worth Beach", "region": "Florida", "region_code": "FL", "country": "United States", "country_code": "US", "continent": "North America", "continent_code": "NA", "latitude": "26.61708", "longitude": "-80.07231", "timezone": "America/New_York", "postal_code": "33466"}
{"network": "2408:8469:ff0b::/48", "city": "Shanghai", "region": "Shanghai", "region_code": "SH", "country": "China", "country_code": "CN", "continent": "Asia", "continent_code": "AS", "latitude": "31.22222", "longitude": "121.45806", "timezone": "Asia/Shanghai", "postal_code": "200000"}
{"network": "177.174.156.24/31", "city": "Tr\u00eas Pontas", "region": "Minas Gerais", "region_code": "MG", "country": "Brazil", "country_code": "BR", "continent": "South America", "continent_code": "SA", "latitude": "-21.36667", "longitude": "-45.5125", "timezone": "America/Sao_Paulo", "postal_code": "37190-000"}
{"network": "189.252.67.97", "city": "Oaxaca", "region": "Oaxaca", "region_code": "OAX", "country": "Mexico", "country_code": "MX", "continent": "North America", "continent_code": "NA", "latitude": "17.06542", "longitude": "-96.72365", "timezone": "America/Mexico_City", "postal_code": "68000"}
{"network": "76.70.99.153", "city": "Welland", "region": "Ontario", "region_code": "ON", "country": "Canada", "country_code": "CA", "continent": "North America", "continent_code": "NA", "latitude": "42.98342", "longitude": "-79.24958", "timezone": "America/Toronto", "postal_code": "L3B"}
{"network": "240e:476:f84:1600::/57", "city": "Foshan", "region": "Guangdong", "region_code": "GD", "country": "China", "country_code": "CN", "continent": "Asia", "continent_code": "AS", "latitude": "23.02677", "longitude": "113.13148", "timezone": "Asia/Shanghai", "postal_code": "528000"}
{"network": "42.127.28.128/27", "city": "Iwase", "region": "Ibaraki", "region_code": "08", "country": "Japan", "country_code": "JP", "continent": "Asia", "continent_code": "AS", "latitude": "36.35", "longitude": "140.1", "timezone": "Asia/Tokyo", "postal_code": "309-1292"}
{"network": "98.215.83.65", "city": "Bloomington", "region": "Illinois", "region_code": "IL", "country": "United States", "country_code": "US", "continent": "North America", "continent_code": "NA", "latitude": "40.4842", "longitude": "-88.99369", "timezone": "America/Chicago", "postal_code": "61701"}
{"network": "5.172.54.8/30", "city": "Dunloy", "region": "Northern Ireland", "region_code": "NIR", "country": "United Kingdom", "country_code": "GB", "continent": "Europe", "continent_code": "EU", "latitude": "55.011", "longitude": "-6.41087", "timezone": "Europe/London", "postal_code": "BT44"}
{"network": "67.176.170.70/31", "city": "Gurnee", "region": "Illinois", "region_code": "IL", "country": "United States", "country_code": "US", "continent": "North America", "continent_code": "NA", "latitude": "42.3703", "longitude": "-87.90202", "timezone": "America/Chicago", "postal_code": "60031"}
{"network": "75.165.100.190", "city": "Littlestown", "region": "Pennsylvania", "region_code": "PA", "country": "United States", "country_code": "US", "continent": "North America", "continent_code": "NA", "latitude": "39.74454", "longitude": "-77.08804", "timezone": "America/New_York", "postal_code": "17340"}
{"network": "183.177.71.52", "city": "Miami", "region": "Florida", "region_code": "FL", "country": "United States", "country_code": "US", "continent": "North America", "continent_code": "NA", "latitude": "25.77427", "longitude": "-80.19366", "timezone": "America/New_York", "postal_code": "33101"}
{"network": "121.33.223.224/27", "city": "Shenzhen", "region": "Guangdong", "region_code": "GD", "country": "China", "country_code": "CN", "continent": "Asia", "continent_code": "AS", "latitude": "22.54554", "longitude": "114.0683", "timezone": "Asia/Shanghai", "postal_code": "518000"}
{"network": "74.174.80.196/30", "city": "Atlanta", "region": "Georgia", "region_code": "GA", "country": "United States", "country_code": "US", "continent": "North America", "continent_code": "NA", "latitude": "33.749", "longitude": "-84.38798", "timezone": "America/New_York", "postal_code": "30302"}
{"network": "2404:4404:27df::/56", "city": "Christchurch", "region": "Canterbury", "region_code": "CAN", "country": "New Zealand", "country_code": "NZ", "continent": "Oceania", "continent_code": "OC", "latitude": "-43.53333", "longitude": "172.63333", "timezone": "Pacific/Auckland", "postal_code": "8011"}
{"network": "64.6.2.136/29", "city": "Hamilton", "region": "Illinois", "region_code": "IL", "country": "United States", "country_code": "US", "continent": "North America", "continent_code": "NA", "latitude": "40.39643", "longitude": "-91.33904", "timezone": "America/Chicago", "postal_code": "62341"}
{"network": "180.13.134.64/27", "city": "Yamagata", "region": "Yamagata", "region_code": "06", "country": "Japan", "country_code": "JP", "continent": "Asia", "continent_code": "AS", "latitude": "38.23333", "longitude": "140.36667", "timezone": "Asia/Tokyo", "postal_code": "969-2275"}
{"network": "60.43.188.160/27", "city": "Tokyo", "region": "Tokyo", "region_code": "13", "country": "Japan", "country_code": "JP", "continent": "Asia", "continent_code": "AS", "latitude": "35.6895", "longitude": "139.69171", "timezone": "Asia/Tokyo", "postal_code": "101-8656"}
{"network": "2a01:cb05:81a2:2000::/51", "city": "Le Pouliguen", "region": "Pays de la Loire", "region_code": "PDL", "country": "France", "country_code": "FR", "continent": "Europe", "continent_code": "EU", "latitude": "47.27187", "longitude": "-2.43319", "timezone": "Europe/Paris", "postal_code": "44510"}
{"network": "2a09:bac1:1100:3c44::/62", "city": "S\u00e3o Paulo", "region": "S\u00e3o Paulo", "region_code": "SP", "country": "Brazil", "country_code": "BR", "continent": "South America", "continent_code": "SA", "latitude": "-23.5475", "longitude": "-46.63611", "timezone": "America/Sao_Paulo", "postal_code": "01000-000"}
{"network": "212.156.69.25", "city": "Istanbul", "region": "Istanbul", "region_code": "34", "country": "Turkey", "country_code": "TR", "continent": "Asia", "continent_code": "AS", "latitude": "41.01384", "longitude": "28.94966", "timezone": "Europe/Istanbul", "postal_code": "34096"}
{"network": "50.248.70.48/28", "city": "Pittsburgh", "region": "Pennsylvania", "region_code": "PA", "country": "United States", "country_code": "US", "continent": "North America", "continent_code": "NA", "latitude": "40.44062", "longitude": "-79.99589", "timezone": "America/New_York", "postal_code": "15212"}
{"network": "221.191.67.128/30", "city": "Tokyo", "region": "Tokyo", "region_code": "13", "country": "Japan", "country_code": "JP", "continent": "Asia", "continent_code": "AS", "latitude": "35.6895", "longitude": "139.69171", "timezone": "Asia/Tokyo", "postal_code": "101-8656"}
{"network": "2405:205:100d:5e00::/56", "city": "S\u016bratgarh", "region": "Rajasthan", "region_code": "RJ", "country": "India", "country_code": "IN", "continent": "Asia", "continent_code": "AS", "latitude": "29.3215", "longitude": "73.89979", "timezone": "Asia/Kolkata", "postal_code": "335804"}
{"network": "2409:4041:2699:7c00::/56", "city": "Lilia", "region": "Gujarat", "region_code": "GJ", "country": "India", "country_code": "IN", "continent": "Asia", "continent_code": "AS", "latitude": "21.53678", "longitude": "71.36362", "timezone": "Asia/Kolkata", "postal_code": "365535"}
{"network": "2a11:fb80:29b:1400::/55", "city": "Bredstedt", "region": "Schleswig-Holstein", "region_code": "SH", "country": "Germany", "country_code": "DE", "continent": "Europe", "continent_code": "EU", "latitude": "54.61868", "longitude": "8.96441", "timezone": "Europe/Berlin", "postal_code": "25821"}
{"network": "2a09:bac5:9c1:1e00::/55", "city": "San Francisco", "region": "California", "region_code": "CA", "country": "United States", "country_code": "US", "continent": "North America", "continent_code": "NA", "latitude": "37.7621", "longitude": "-122.3971", "timezone": "America/Los_Angeles", "postal_code": "94107"}
{"network": "2001:503:800::/38", "city": "New York City", "region": "New York", "region_code": "NY", "country": "United States", "country_code": "US", "continent": "North America", "continent_code": "NA", "latitude": "40.71427", "longitude": "-74.00597", "timezone": "America/New_York", "postal_code": "10001"}
{"network": "68.85.76.210", "city": "Newark", "region": "New Jersey", "region_code": "NJ", "country": "United States", "country_code": "US", "continent": "North America", "continent_code": "NA", "latitude": "40.73566", "longitude": "-74.17237", "timezone": "America/New_York", "postal_code": "07102"}
{"network": "69.241.181.181", "city": "Denver", "region": "Colorado", "region_code": "CO", "country": "United States", "country_code": "US", "continent": "North America", "continent_code": "NA", "latitude": "39.73915", "longitude": "-104.9847", "timezone": "America/Denver", "postal_code": "80203"}
{"network": "97.182.244.70/31", "city": "Albuquerque", "region": "New Mexico", "region_code": "NM", "country": "United States", "country_code": "US", "continent": "North America", "continent_code": "NA", "latitude": "35.08449", "longitude": "-106.65114", "timezone": "America/Denver", "postal_code": "87102"}
{"network": "91.228.199.208", "city": "Pozna\u0144", "region": "Greater Poland", "region_code": "30", "country": "Poland", "country_code": "PL", "continent": "Europe", "continent_code": "EU", "latitude": "52.40692", "longitude": "16.92993", "timezone": "Europe/Warsaw", "postal_code": "61-101"}
{"network": "90.193.58.204/30", "city": "Caterham", "region": "England", "region_code": "ENG", "country": "United Kingdom", "country_code": "GB", "continent": "Europe", "continent_code": "EU", "latitude": "51.2823", "longitude": "-0.07889", "timezone": "Europe/London", "postal_code": "CR3"}
{"network": "60.241.239.68/30", "city": "Brisbane", "region": "Queensland", "region_code": "QLD", "country": "Australia", "country_code": "AU", "continent": "Oceania", "continent_code": "OC", "latitude": "-27.46794", "longitude": "153.02809", "timezone": "Australia/Brisbane", "postal_code": "4000"}
{"network": "179.176.60.234", "city": "Rio de Janeiro", "region": "Rio de Janeiro", "region_code": "RJ", "country": "Brazil", "country_code": "BR", "continent": "South America", "continent_code": "SA", "latitude": "-22.90642", "longitude": "-43.18223", "timezone": "America/Sao_Paulo", "postal_code": "20000-000"}
{"network": "91.180.29.32/28", "city": "Ieper", "region": "Flanders", "region_code": "VLG", "country": "Belgium", "country_code": "BE", "continent": "Europe", "continent_code": "EU", "latitude": "50.85114", "longitude": "2.88569", "timezone": "Europe/Brussels", "postal_code": "8900"}
{"network": "126.213.247.144/29", "city": "Osaka", "region": "Osaka", "region_code": "27", "country": "Japan", "country_code": "JP", "continent": "Asia", "continent_code": "AS", "latitude": "34.69379", "longitude": "135.50107", "timezone": "Asia/Tokyo", "postal_code": "543-0062"}
{"network": "2401:4900:5ba4:8400::/56", "city": "Udaipur", "region": "Rajasthan", "region_code": "RJ", "country": "India", "country_code": "IN", "continent": "Asia", "continent_code": "AS", "latitude": "24.58584", "longitude": "73.71346", "timezone": "Asia/Kolkata", "postal_code": "313001"}
{"network": "2600:c80c:47af::/48", "city": "Ashburn", "region": "Virginia", "region_code": "VA", "country": "United States", "country_code": "US", "continent": "North America", "continent_code": "NA", "latitude": "39.04372", "longitude": "-77.48749", "timezone": "America/New_York", "postal_code": "20147"}
{"network": "2001:550:2:1::1b6:40/122", "city": "New York City", "region": "New York", "region_code": "NY", "country": "United States", "country_code": "US", "continent": "North America", "continent_code": "NA", "latitude": "40.71427", "longitude": "-74.00597", "timezone": "America/New_York", "postal_code": "10001"}
{"network": "68.84.233.196/31", "city": "Vineland", "region": "New Jersey", "region_code": "NJ", "country": "United States", "country_code": "US", "continent": "North America", "continent_code": "NA", "latitude": "39.48623", "longitude": "-75.02573", "timezone": "America/New_York", "postal_code": "08362"}
{"network": "148.74.121.128/28", "city": "Robertsville", "region": "New Jersey", "region_code": "NJ", "country": "United States", "country_code": "US", "continent": "North America", "continent_code": "NA", "latitude": "40.34622", "longitude": "-74.28792", "timezone": "America/New_York", "postal_code": "07751"}
{"network": "65.154.93.16", "city": "Monroe", "region": "Louisiana", "region_code": "LA", "country": "United States", "country_code": "US", "continent": "North America", "continent_code": "NA", "latitude": "32.553", "longitude": "-92.0422", "timezone": "America/Chicago", "postal_code": "71203"}
{"network": "2a02:3100:2375:7200::/55", "city": "Berlin", "region": "Berlin", "region_code": "BE", "country": "Germany", "country_code": "DE", "continent": "Europe", "continent_code": "EU", "latitude": "52.52437", "longitude": "13.41053", "timezone": "Europe/Berlin", "postal_code": "10119"}
{"network": "192.30.43.136/30", "city": "San Juan", "region": "San Juan", "region_code": "127", "country": "Puerto Rico", "country_code": "PR", "continent": "North America", "continent_code": "NA", "latitude": "18.46633", "longitude": "-66.10572", "timezone": "America/Puerto_Rico", "postal_code": "00901"}
{"network": "2601:243:c802:3f60::/59", "city": "Gary", "region": "Indiana", "region_code": "IN", "country": "United States", "country_code": "US", "continent": "North America", "continent_code": "NA", "latitude": "41.59337", "longitude": "-87.34643", "timezone": "America/Chicago", "postal_code": "46402"}
{"network": "98.241.237.228", "city": "Miami", "region": "Florida", "region_code": "FL", "country": "United States", "country_code": "US", "continent": "North America", "continent_code": "NA", "latitude": "25.77427", "longitude": "-80.19366", "timezone": "America/New_York", "postal_code": "33101"}
{"network": "2003:c4:cf41:3360::/59", "city": "Lohfelden", "region": "Hesse", "region_code": "HE", "country": "Germany", "country_code": "DE", "continent": "Europe", "continent_code": "EU", "latitude": "51.26667", "longitude": "9.53333", "timezone": "Europe/Berlin", "postal_code": "34253"}
{"network": "2409:4080:931b:5b00::/56", "city": "Vy\u0101ra", "region": "Gujarat", "region_code": "GJ", "country": "India", "country_code": "IN", "continent": "Asia", "continent_code": "AS", "latitude": "21.11079", "longitude": "73.39365", "timezone": "Asia/Kolkata", "postal_code": "394651"}
{"network": "2409:4081:590:d300::/56", "city": "Mehkar", "region": "Maharashtra", "region_code": "MH", "country": "India", "country_code": "IN", "continent": "Asia", "continent_code": "AS", "latitude": "20.1505", "longitude": "76.56841", "timezone": "Asia/Kolkata", "postal_code": "443301"}
{"network": "2401:4900:418c:fc00::/56", "city": "Sar\u012bla", "region": "Uttar Pradesh", "region_code": "UP", "country": "India", "country_code": "IN", "continent": "Asia", "continent_code": "AS", "latitude": "25.77579", "longitude": "79.67535", "timezone": "Asia/Kolkata", "postal_code": "210432"}
{"network": "2001:4430:d17d:cd00::/56", "city": "Daegu", "region": "Daegu", "region_code": "27", "country": "South Korea", "country_code": "KR", "continent": "Asia", "continent_code": "AS", "latitude": "35.87028", "longitude": "128.59111", "timezone": "Asia/Seoul", "postal_code": "41581"}
{"network": "126.151.11.20/31", "city": "Hatsudai", "region": "Tokyo", "region_code": "13", "country": "Japan", "country_code": "JP", "continent": "Asia", "continent_code": "AS", "latitude": "35.67729", "longitude": "139.68588", "timezone": "Asia/Tokyo", "postal_code": "151-0061"}
{"network": "2804:fec:d499:4000::/50", "city": "Santa Cruz do Rio Pardo", "region": "S\u00e3o Paulo", "region_code": "SP", "country": "Brazil", "country_code": "BR", "continent": "South America", "continent_code": "SA", "latitude": "-22.89889", "longitude": "-49.6325", "timezone": "America/Sao_Paulo", "postal_code": "18900-000"}
{"network": "70.51.195.0/24", "city": "Clarence-Rockland", "region": "Ontario", "region_code": "ON", "country": "Canada", "country_code": "CA", "continent": "North America", "continent_code": "NA", "latitude": "45.5501", "longitude": "-75.29101", "timezone": "America/Toronto", "postal_code": "K4K"}
{"network": "2409:40c1:3033:a000::/51", "city": "R\u0101jkot", "region": "Gujarat", "region_code": "GJ", "country": "India", "country_code": "IN", "continent": "Asia", "continent_code": "AS", "latitude": "22.29161", "longitude": "70.79322", "timezone": "Asia/Kolkata", "postal_code": "360022"}
{"network": "2001:e68:62b1:1800::/53", "city": "Petaling Jaya", "region": "Selangor", "region_code": "10", "country": "Malaysia", "country_code": "MY", "continent": "Asia", "continent_code": "AS", "latitude": "3.10726", "longitude": "101.60671", "timezone": "Asia/Kuala_Lumpur", "postal_code": "46547"}
{"network": "177.68.196.120/29", "city": "S\u00e3o Paulo", "region": "S\u00e3o Paulo", "region_code": "SP", "country": "Brazil", "country_code": "BR", "continent": "South America", "continent_code": "SA", "latitude": "-23.5475", "longitude": "-46.63611", "timezone": "America/Sao_Paulo", "postal_code": "01000-000"}
{"network": "240e:350:207:9d0::/60", "city": "Foshan", "region": "Guangdong", "region_code": "GD", "country": "China", "country_code": "CN", "continent": "Asia", "continent_code": "AS", "latitude": "23.02677", "longitude": "113.13148", "timezone": "Asia/Shanghai", "postal_code": "528000"}
{"network": "27.140.229.96/30", "city": "Tokyo", "region": "Tokyo", "region_code": "13", "country": "Japan", "country_code": "JP", "continent": "Asia", "continent_code": "AS", "latitude": "35.6895", "longitude": "139.69171", "timezone": "Asia/Tokyo", "postal_code": "101-8656"}
{"network": "2804:2d60:c200:200::/55", "city": "S\u00e3o Paulo", "region": "S\u00e3o Paulo", "region_code": "SP", "country": "Brazil", "country_code": "BR", "continent": "South America", "continent_code": "SA", "latitude": "-23.5475", "longitude": "-46.63611", "timezone": "America/Sao_Paulo", "postal_code": "01000-000"}
{"network": "2804:1ac4:4151:200::/55", "city": "S\u00e3o Paulo", "region": "S\u00e3o Paulo", "region_code": "SP", "country": "Brazil", "country_code": "BR", "continent": "South America", "continent_code": "SA", "latitude": "-23.5475", "longitude": "-46.63611", "timezone": "America/Sao_Paulo", "postal_code": "01000-000"}
{"network": "2409:4081:c86:a600::/56", "city": "Bijapur", "region": "Karnataka", "region_code": "KA", "country": "India", "country_code": "IN", "continent": "Asia", "continent_code": "AS", "latitude": "16.82442", "longitude": "75.71537", "timezone": "Asia/Kolkata", "postal_code": "586111"}
{"network": "240e:341:d819:1200::/55", "city": "Shanghai", "region": "Shanghai", "region_code": "SH", "country": "China", "country_code": "CN", "continent": "Asia", "continent_code": "AS", "latitude": "31.22222", "longitude": "121.45806", "timezone": "Asia/Shanghai", "postal_code": "200000"}
{"network": "187.212.156.18/31", "city": "Tepatitl\u00e1n de Morelos", "region": "Jalisco", "region_code": "JAL", "country": "Mexico", "country_code": "MX", "continent": "North America", "continent_code": "NA", "latitude": "20.81692", "longitude": "-102.76347", "timezone": "America/Mexico_City", "postal_code": "47690"}
{"network": "50.231.58.48/31", "city": "Elkton", "region": "Maryland", "region_code": "MD", "country": "United States", "country_code": "US", "continent": "North America", "continent_code": "NA", "latitude": "39.60678", "longitude": "-75.83327", "timezone": "America/New_York", "postal_code": "21922"}
{"network": "153.142.88.176/30", "city": "Saga", "region": "Saga", "region_code": "41", "country": "Japan", "country_code": "JP", "continent": "Asia", "continent_code": "AS", "latitude": "33.23333", "longitude": "130.3", "timezone": "Asia/Tokyo", "postal_code": "840-0021"}
{"network": "2405:205:1404:a100::/56", "city": "R\u0101mgarh", "region": "Rajasthan", "region_code": "RJ", "country": "India", "country_code": "IN", "continent": "Asia", "continent_code": "AS", "latitude": "27.25097", "longitude": "75.17893", "timezone": "Asia/Kolkata", "postal_code": "332702"}
{"network": "151.34.162.216/30", "city": "Manerba del Garda", "region": "Lombardy", "region_code": "25", "country": "Italy", "country_code": "IT", "continent": "Europe", "continent_code": "EU", "latitude": "45.54988", "longitude": "10.55228", "timezone": "Europe/Rome", "postal_code": "25080"}
{"network": "2601:646:8f02:56d8::/61", "city": "Fremont", "region": "California", "region_code": "CA", "country": "United States", "country_code": "US", "continent": "North America", "continent_code": "NA", "latitude": "37.54827", "longitude": "-121.98857", "timezone": "America/Los_Angeles", "postal_code": "94536"}
{"network": "77.34.182.64/26", "city": "Vladivostok", "region": "Primorye", "region_code": "PRI", "country": "Russia", "country_code": "RU", "continent": "Europe", "continent_code": "EU", "latitude": "43.10562", "longitude": "131.87353", "timezone": "Asia/Vladivostok", "postal_code": "690000"}
{"network": "187.190.114.90/31", "city": "Coyutla", "region": "Veracruz", "region_code": "VER", "country": "Mexico", "country_code": "MX", "continent": "North America", "continent_code": "NA", "latitude": "20.2472", "longitude": "-97.65824", "timezone": "America/Mexico_City", "postal_code": "93140"}
{"network": "104.158.94.12/31", "city": "Greater Sudbury", "region": "Ontario", "region_code": "ON", "country": "Canada", "country_code": "CA", "continent": "North America", "continent_code": "NA", "latitude": "46.49", "longitude": "-80.99001", "timezone": "America/Toronto", "postal_code": "P3C"}
{"network": "92.198.56.30/31", "city": "Mannheim", "region": "Baden-Wurttemberg", "region_code": "BW", "country": "Germany", "country_code": "DE", "continent": "Europe", "continent_code": "EU", "latitude": "49.4891", "longitude": "8.46694", "timezone": "Europe/Berlin", "postal_code": "68159"}
{"network": "183.97.190.0/25", "city": "Goyang-si", "region": "Gyeonggi-do", "region_code": "41", "country": "South Korea", "country_code": "KR", "continent": "Asia", "continent_code": "AS", "latitude": "37.65639", "longitude": "126.835", "timezone": "Asia/Seoul", "postal_code": "10297"}
{"network": "91.179.192.224/27", "city": "Saint-Vith", "region": "Wallonia", "region_code": "WAL", "country": "Belgium", "country_code": "BE", "continent": "Europe", "continent_code": "EU", "latitude": "50.28146", "longitude": "6.12724", "timezone": "Europe/Brussels", "postal_code": "4780"}
{"network": "71.219.174.148/31", "city": "Ferrum", "region": "Virginia", "region_code": "VA", "country": "United States", "country_code": "US", "continent": "North America", "continent_code": "NA", "latitude": "36.92292", "longitude": "-80.01337", "timezone": "America/New_York", "postal_code": "24088"}
{"network": "213.192.186.22", "city": "Amsterdam", "region": "North Holland", "region_code": "NH", "country": "Netherlands", "country_code": "NL", "continent": "Europe", "continent_code": "EU", "latitude": "52.37403", "longitude": "4.88969", "timezone": "Europe/Amsterdam", "postal_code": "1012"}
{"network": "126.75.54.208/29", "city": "Sapporo", "region": "Hokkaido", "region_code": "01", "country": "Japan", "country_code": "JP", "continent": "Asia", "continent_code": "AS", "latitude": "43.06667", "longitude": "141.35", "timezone": "Asia/Tokyo", "postal_code": "065-0010"}