{"network": "158.222.22.111", "city": "Atlanta", "region": "Illinois", "region_code": "IL", "country": "United States", "country_code": "US", "continent": "North America", "continent_code": "NA", "latitude": "40.25948", "longitude": "-89.23342", "timezone": "America/Chicago", "postal_code": "61723"}
{"network": "73.181.134.216/30", "city": "Kirkland", "region": "Washington", "region_code": "WA", "country": "United States", "country_code": "US", "continent": "North America", "continent_code": "NA", "latitude": "47.68149", "longitude": "-122.20874", "timezone": "America/Los_Angeles", "postal_code": "98083"}
{"network": "240e:47c:9661::/48", "city": "Shanghai", "region": "Shanghai", "region_code": "SH", "country": "China", "country_code": "CN", "continent": "Asia", "continent_code": "AS", "latitude": "31.22222", "longitude": "121.45806", "timezone": "Asia/Shanghai", "postal_code": "200000"}
{"network": "2003:e9:4f2b:8000::/49", "city": "Liebenwalde", "region": "Brandenburg", "region_code": "BB", "country": "Germany", "country_code": "DE", "continent": "Europe", "continent_code": "EU", "latitude": "52.87125", "longitude": "13.39465", "timezone": "Europe/Berlin", "postal_code": "16559"}
{"network": "2a00:b320:0:4::/62", "city": "Manchester", "region": "England", "region_code": "ENG", "country": "United Kingdom", "country_code": "GB", "continent": "Europe", "continent_code": "EU", "latitude": "53.48095", "longitude": "-2.23743", "timezone": "Europe/London", "postal_code": "M1"}
{"network": "2a06:c701:1189:d5f0::/61", "city": "Jerusalem", "region": "Jerusalem", "region_code": "JM", "country": "Israel", "country_code": "IL", "continent": "Asia", "continent_code": "AS", "latitude": "31.76904", "longitude": "35.21633", "timezone": "Asia/Jerusalem", "postal_code": ""}
{"network": "191.13.121.203", "city": "Santos", "region": "São Paulo", "region_code": "SP", "country": "Brazil", "country_code": "BR", "continent": "South America", "continent_code": "SA", "latitude": "-23.96083", "longitude": "-46.33361", "timezone": "America/Sao_Paulo", "postal_code": "11000-000"}
{"network": "73.148.25.252/31", "city": "Louisa", "region": "Virginia", "region_code": "VA", "country": "United States", "country_code": "US", "continent": "North America", "continent_code": "NA", "latitude": "38.02514", "longitude": "-78.00416", "timezone": "America/New_York", "postal_code": "23093"}
{"network": "240e:33d:7fb4:a800::/53", "city": "Shanghai", "region": "Shanghai", "region_code": "SH", "country": "China", "country_code": "CN", "continent": "Asia", "continent_code": "AS", "latitude": "31.22222", "longitude": "121.45806", "timezone": "Asia/Shanghai", "postal_code": "200000"}
{"network": "2a10:d8c0:131e:2400::/54", "city": "Podolsk", "region": "Moscow Oblast", "region_code": "MOS", "country": "Russia", "country_code": "RU", "continent": "Europe", "continent_code": "EU", "latitude": "55.42419", "longitude": "37.55472", "timezone": "Europe/Moscow", "postal_code": "142100"}
{"network": "201.32.130.64/26", "city": "Rio de Janeiro", "region": "Rio de Janeiro", "region_code": "RJ", "country": "Brazil", "country_code": "BR", "continent": "South America", "continent_code": "SA", "latitude": "-22.90642", "longitude": "-43.18223", "timezone": "America/Sao_Paulo", "postal_code": "20000-000"}
{"network": "240e:352:1982:b600::/56", "city": "Foshan", "region": "Guangdong", "region_code": "GD", "country": "China", "country_code": "CN", "continent": "Asia", "continent_code": "AS", "latitude": "23.02677", "longitude": "113.13148", "timezone": "Asia/Shanghai", "postal_code": "528000"}
{"network": "2001:16a2:3ed4:7100::/56", "city": "Riyadh", "region": "Riyadh Region", "region_code": "01", "country": "Saudi Arabia", "country_code": "SA", "continent": "Asia", "continent_code": "AS", "latitude": "24.68773", "longitude": "46.72185", "timezone": "Asia/Riyadh", "postal_code": ""}
{"network": "2a02:a03f:afff:4080::/57", "city": "Schaerbeek", "region": "Brussels Capital", "region_code": "BRU", "country": "Belgium", "country_code": "BE", "continent": "Europe", "continent_code": "EU", "latitude": "50.86935", "longitude": "4.37737", "timezone": "Europe/Brussels", "postal_code": "1030"}
{"network": "217.6.212.128/29", "city": "Erftstadt", "region": "North Rhine-Westphalia", "region_code": "NW", "country": "Germany", "country_code": "DE", "continent": "Europe", "continent_code": "EU", "latitude": "50.81481", "longitude": "6.79387", "timezone": "Europe/Berlin", "postal_code": "50374"}
{"network": "63.228.134.248/29", "city": "Phoenix", "region": "Arizona", "region_code": "AZ", "country": "United States", "country_code": "US", "continent": "North America", "continent_code": "NA", "latitude": "33.44838", "longitude": "-112.07404", "timezone": "America/Phoenix", "postal_code": "85001"}
{"network": "37.173.107.192/28", "city": "Jouy-en-Josas", "region": "Île-de-France", "region_code": "IDF", "country": "France", "country_code": "FR", "continent": "Europe", "continent_code": "EU", "latitude": "48.75909", "longitude": "2.16966", "timezone": "Europe/Paris", "postal_code": "78350"}
{"network": "2600:1:d527:5600::/55", "city": "Fort Worth", "region": "Texas", "region_code": "TX", "country": "United States", "country_code": "US", "continent": "North America", "continent_code": "NA", "latitude": "32.7589", "longitude": "-97.328", "timezone": "America/Chicago", "postal_code": "76102"}
{"network": "71.50.174.48/28", "city": "Spring Lake", "region": "North Carolina", "region_code": "NC", "country": "United States", "country_code": "US", "continent": "North America", "continent_code": "NA", "latitude": "35.16794", "longitude": "-78.97281", "timezone": "America/New_York", "postal_code": "28390"}
{"network": "92.22.32.32/27", "city": "Bristol", "region": "England", "region_code": "ENG", "country": "United Kingdom", "country_code": "GB", "continent": "Europe", "continent_code": "EU", "latitude": "51.45523", "longitude": "-2.59665", "timezone": "Europe/London", "postal_code": "BS1"}
{"network": "2a06:c701:a640:bb20::/59", "city": "Tel Aviv", "region": "Tel Aviv", "region_code": "TA", "country": "Israel", "country_code": "IL", "continent": "Asia", "continent_code": "AS", "latitude": "32.08088", "longitude": "34.78057", "timezone": "Asia/Jerusalem", "postal_code": ""}
{"network": "187.227.144.246/31", "city": "Atoyac de Álvarez", "region": "Guerrero", "region_code": "GRO", "country": "Mexico", "country_code": "MX", "continent": "North America", "continent_code": "NA", "latitude": "17.20667", "longitude": "-100.43306", "timezone": "America/Mexico_City", "postal_code": "40930"}
{"network": "187.74.39.8", "city": "Vinhedo", "region": "São Paulo", "region_code": "SP", "country": "Brazil", "country_code": "BR", "continent": "South America", "continent_code": "SA", "latitude": "-23.02972", "longitude": "-46.97528", "timezone": "America/Sao_Paulo", "postal_code": "13280-000"}
{"network": "1.40.95.48/29", "city": "Sydney", "region": "New South Wales", "region_code": "NSW", "country": "Australia", "country_code": "AU", "continent": "Oceania", "continent_code": "OC", "latitude": "-33.86785", "longitude": "151.20732", "timezone": "Australia/Sydney", "postal_code": "1001"}
{"network": "2409:40d2:101d:9700::/56", "city": "Meerut", "region": "Uttar Pradesh", "region_code": "UP", "country": "India", "country_code": "IN", "continent": "Asia", "continent_code": "AS", "latitude": "28.98002", "longitude": "77.70636", "timezone": "Asia/Kolkata", "postal_code": "250002"}
{"network": "2408:8418:6c20:2600::/56", "city": "Shanghai", "region": "Shanghai", "region_code": "SH", "country": "China", "country_code": "CN", "continent": "Asia", "continent_code": "AS", "latitude": "31.22222", "longitude": "121.45806", "timezone": "Asia/Shanghai", "postal_code": "200000"}
{"network": "124.169.156.172", "city": "Sydney", "region": "New South Wales", "region_code": "NSW", "country": "Australia", "country_code": "AU", "continent": "Oceania", "continent_code": "OC", "latitude": "-33.86785", "longitude": "151.20732", "timezone": "Australia/Sydney", "postal_code": "1001"}
{"network": "75.201.10.120/29", "city": "Plantation", "region": "Florida", "region_code": "FL", "country": "United States", "country_code": "US", "continent": "North America", "continent_code": "NA", "latitude": "26.13421", "longitude": "-80.23184", "timezone": "America/New_York", "postal_code": "33388"}
{"network": "46.208.125.172/30", "city": "Stockton-on-Tees", "region": "England", "region_code": "ENG", "country": "United Kingdom", "country_code": "GB", "continent": "Europe", "continent_code": "EU", "latitude": "54.56848", "longitude": "-1.3187", "timezone": "Europe/London", "postal_code": "TS19"}
{"network": "46.201.145.128/25", "city": "Dubno", "region": "Rivne", "region_code": "56", "country": "Ukraine", "country_code": "UA", "continent": "Europe", "continent_code": "EU", "latitude": "50.41694", "longitude": "25.73432", "timezone": "Europe/Kyiv", "postal_code": "35600"}
{"network": "153.249.246.239", "city": "Hadano", "region": "Kanagawa", "region_code": "14", "country": "Japan", "country_code": "JP", "continent": "Asia", "continent_code": "AS", "latitude": "35.37111", "longitude": "139.22361", "timezone": "Asia/Tokyo", "postal_code": "257-0011"}
{"network": "36.79.219.166", "city": "Blitar", "region": "East Java", "region_code": "JI", "country": "Indonesia", "country_code": "ID", "continent": "Asia", "continent_code": "AS", "latitude": "-8.0983", "longitude": "112.1681", "timezone": "Asia/Jakarta", "postal_code": ""}
{"network": "14.3.166.217", "city": "Machida", "region": "Tokyo", "region_code": "13", "country": "Japan", "country_code": "JP", "continent": "Asia", "continent_code": "AS", "latitude": "35.54028", "longitude": "139.45083", "timezone": "Asia/Tokyo", "postal_code": "290-0267"}
{"network": "2409:408d:98d:f000::/52", "city": "Pallāvaram", "region": "Tamil Nadu", "region_code": "TN", "country": "India", "country_code": "IN", "continent": "Asia", "continent_code": "AS", "latitude": "12.96796", "longitude": "80.15025", "timezone": "Asia/Kolkata", "postal_code": "600043"}
{"network": "2409:4070:248c:e400::/56", "city": "Vijayawada", "region": "Andhra Pradesh", "region_code": "AP", "country": "India", "country_code": "IN", "continent": "Asia", "continent_code": "AS", "latitude": "16.50745", "longitude": "80.6466", "timezone": "Asia/Kolkata", "postal_code": "520004"}
{"network": "60.43.114.204/30", "city": "Osaka", "region": "Osaka", "region_code": "27", "country": "Japan", "country_code": "JP", "continent": "Asia", "continent_code": "AS", "latitude": "34.69379", "longitude": "135.50107", "timezone": "Asia/Tokyo", "postal_code": "543-0062"}
{"network": "186.132.215.64/27", "city": "Adrogué", "region": "Buenos Aires", "region_code": "B", "country": "Argentina", "country_code": "AR", "continent": "South America", "continent_code": "SA", "latitude": "-34.80041", "longitude": "-58.38384", "timezone": "America/Argentina/Buenos_Aires", "postal_code": "1846"}
{"network": "2409:4081:e08:c300::/56", "city": "Mūl", "region": "Maharashtra", "region_code": "MH", "country": "India", "country_code": "IN", "continent": "Asia", "continent_code": "AS", "latitude": "20.06987", "longitude": "79.67826", "timezone": "Asia/Kolkata", "postal_code": "441224"}
{"network": "2409:40e6:b::/56", "city": "Guwahati", "region": "Assam", "region_code": "AS", "country": "India", "country_code": "IN", "continent": "Asia", "continent_code": "AS", "latitude": "26.1844", "longitude": "91.7458", "timezone": "Asia/Kolkata", "postal_code": "781030"}
{"network": "166.157.48.128/25", "city": "Paramus", "region": "New Jersey", "region_code": "NJ", "country": "United States", "country_code": "US", "continent": "North America", "continent_code": "NA", "latitude": "40.94454", "longitude": "-74.07542", "timezone": "America/New_York", "postal_code": "07652"}
{"network": "108.47.232.16/28", "city": "Los Angeles", "region": "California", "region_code": "CA", "country": "United States", "country_code": "US", "continent": "North America", "continent_code": "NA", "latitude": "34.05223", "longitude": "-118.24368", "timezone": "America/Los_Angeles", "postal_code": "90009"}
{"network": "173.162.146.224/28", "city": "Brockton", "region": "Massachusetts", "region_code": "MA", "country": "United States", "country_code": "US", "continent": "North America", "continent_code": "NA", "latitude": "42.08343", "longitude": "-71.01838", "timezone": "America/New_York", "postal_code": "02303"}
{"network": "2a02:3100:5c04:be00::/55", "city": "Frankfurt am Main", "region": "Hesse", "region_code": "HE", "country": "Germany", "country_code": "DE", "continent": "Europe", "continent_code": "EU", "latitude": "50.11552", "longitude": "8.68417", "timezone": "Europe/Berlin", "postal_code": "60306"}
{"network": "109.159.233.169", "city": "Ipswich", "region": "England", "region_code": "ENG", "country": "United Kingdom", "country_code": "GB", "continent": "Europe", "continent_code": "EU", "latitude": "52.05917", "longitude": "1.15545", "timezone": "Europe/London", "postal_code": "IP1"}
{"network": "153.133.182.96/31", "city": "Handa", "region": "Aichi", "region_code": "23", "country": "Japan", "country_code": "JP", "continent": "Asia", "continent_code": "AS", "latitude": "34.88333", "longitude": "136.93333", "timezone": "Asia/Tokyo", "postal_code": "514-0823"}
{"network": "2a0c:5a84:9300:c00::/54", "city": "Madrid", "region": "Madrid", "region_code": "MD", "country": "Spain", "country_code": "ES", "continent": "Europe", "continent_code": "EU", "latitude": "40.4165", "longitude": "-3.70256", "timezone": "Europe/Madrid", "postal_code": "28004"}
{"network": "122.222.213.228", "city": "Kurume", "region": "Fukuoka", "region_code": "40", "country": "Japan", "country_code": "JP", "continent": "Asia", "continent_code": "AS", "latitude": "33.31667", "longitude": "130.51667", "timezone": "Asia/Tokyo", "postal_code": "830-0003"}
{"network": "180.254.24.223", "city": "Jeruklegi", "region": "Central Java", "region_code": "JT", "country": "Indonesia", "country_code": "ID", "continent": "Asia", "continent_code": "AS", "latitude": "-7.62444", "longitude": "109.01917", "timezone": "Asia/Jakarta", "postal_code": ""}
{"network": "182.71.210.224/28", "city": "Kolkata", "region": "West Bengal", "region_code": "WB", "country": "India", "country_code": "IN", "continent": "Asia", "continent_code": "AS", "latitude": "22.56263", "longitude": "88.36304", "timezone": "Asia/Kolkata", "postal_code": "700001"}
{"network": "2403:5819:a5e8::/45", "city": "Melbourne", "region": "Victoria", "region_code": "VIC", "country": "Australia", "country_code": "AU", "continent": "Oceania", "continent_code": "OC", "latitude": "-37.8672", "longitude": "145.09115", "timezone": "Australia/Melbourne", "postal_code": "3147"}
{"network": "2a0f:db81:3196::/48", "city": "Saint Petersburg", "region": "St.-Petersburg", "region_code": "SPE", "country": "Russia", "country_code": "RU", "continent": "Europe", "continent_code": "EU", "latitude": "59.93863", "longitude": "30.31413", "timezone": "Europe/Moscow", "postal_code": "195213"}
{"network": "208.185.242.16/28", "city": "Chicago", "region": "Illinois", "region_code": "IL", "country": "United States", "country_code": "US", "continent": "North America", "continent_code": "NA", "latitude": "41.85003", "longitude": "-87.65005", "timezone": "America/Chicago", "postal_code": "60666"}
{"network": "2408:8471:902::/54", "city": "Chengdu", "region": "Sichuan", "region_code": "SC", "country": "China", "country_code": "CN", "continent": "Asia", "continent_code": "AS", "latitude": "30.66667", "longitude": "104.06667", "timezone": "Asia/Shanghai", "postal_code": "610000"}
{"network": "2a0a:a548:26e9:100::/56", "city": "Köln", "region": "North Rhine-Westphalia", "region_code": "NW", "country": "Germany", "country_code": "DE", "continent": "Europe", "continent_code": "EU", "latitude": "50.9746", "longitude": "6.8713", "timezone": "Europe/Berlin", "postal_code": "50829"}
{"network": "2409:40e0:57:4a00::/56", "city": "Bankra", "region": "West Bengal", "region_code": "WB", "country": "India", "country_code": "IN", "continent": "Asia", "continent_code": "AS", "latitude": "22.60291", "longitude": "88.27751", "timezone": "Asia/Kolkata", "postal_code": "711403"}
{"network": "191.142.195.30/31", "city": "Contagem", "region": "Minas Gerais", "region_code": "MG", "country": "Brazil", "country_code": "BR", "continent": "South America", "continent_code": "SA", "latitude": "-19.93167", "longitude": "-44.05361", "timezone": "America/Sao_Paulo", "postal_code": "32000-000"}
{"network": "97.129.102.132/30", "city": "Charlotte", "region": "North Carolina", "region_code": "NC", "country": "United States", "country_code": "US", "continent": "North America", "continent_code": "NA", "latitude": "35.22709", "longitude": "-80.84313", "timezone": "America/New_York", "postal_code": "28202"}
{"network": "198.129.77.72/30", "city": "Seattle", "region": "Washington", "region_code": "WA", "country": "United States", "country_code": "US", "continent": "North America", "continent_code": "NA", "latitude": "47.60621", "longitude": "-122.33207", "timezone": "America/Los_Angeles", "postal_code": "98101"}
{"network": "2003:ee:1f43:c800::/55", "city": "Munich", "region": "Bavaria", "region_code": "BY", "country": "Germany", "country_code": "DE", "continent": "Europe", "continent_code": "EU", "latitude": "48.13743", "longitude": "11.57549", "timezone": "Europe/Berlin", "postal_code": "80097"}
{"network": "2409:4054:31c:9400::/55", "city": "Srinagar", "region": "Jammu and Kashmir", "region_code": "JK", "country": "India", "country_code": "IN", "continent": "Asia", "continent_code": "AS", "latitude": "34.08565", "longitude": "74.80555", "timezone": "Asia/Kolkata", "postal_code": "190002"}
{"network": "176.26.149.38", "city": "London", "region": "England", "region_code": "ENG", "country": "United Kingdom", "country_code": "GB", "continent": "Europe", "continent_code": "EU", "latitude": "51.50853", "longitude": "-0.12574", "timezone": "Europe/London", "postal_code": "E1W"}
{"network": "80.155.251.248", "city": "Stuttgart", "region": "Baden-Wurttemberg", "region_code": "BW", "country": "Germany", "country_code": "DE", "continent": "Europe", "continent_code": "EU", "latitude": "48.78232", "longitude": "9.17702", "timezone": "Europe/Berlin", "postal_code": "70173"}
{"network": "69.156.137.32/31", "city": "Saint-Jean-sur-Richelieu", "region": "Quebec", "region_code": "QC", "country": "Canada", "country_code": "CA", "continent": "North America", "continent_code": "NA", "latitude": "45.30713", "longitude": "-73.26259", "timezone": "America/Toronto", "postal_code": "J3B"}
{"network": "216.208.205.24/30", "city": "Niagara Falls", "region": "Ontario", "region_code": "ON", "country": "Canada", "country_code": "CA", "continent": "North America", "continent_code": "NA", "latitude": "43.10012", "longitude": "-79.06627", "timezone": "America/Toronto", "postal_code": "L2G"}
{"network": "126.145.244.110/31", "city": "Kobe", "region": "Hyōgo", "region_code": "28", "country": "Japan", "country_code": "JP", "continent": "Asia", "continent_code": "AS", "latitude": "34.6913", "longitude": "135.183", "timezone": "Asia/Tokyo", "postal_code": "761-4146"}
{"network": "2409:4041:6d8f:4900::/56", "city": "Wānkāner", "region": "Gujarat", "region_code": "GJ", "country": "India", "country_code": "IN", "continent": "Asia", "continent_code": "AS", "latitude": "22.61198", "longitude": "70.94379", "timezone": "Asia/Kolkata", "postal_code": "363331"}
{"network": "2804:c90:f594:8000::/52", "city": "Abaeté", "region": "Minas Gerais", "region_code": "MG", "country": "Brazil", "country_code": "BR", "continent": "South America", "continent_code": "SA", "latitude": "-19.16", "longitude": "-45.44583", "timezone": "America/Sao_Paulo", "postal_code": "35620-000"}
{"network": "81.24.227.32/27", "city": "Brescia", "region": "Lombardy", "region_code": "25", "country": "Italy", "country_code": "IT", "continent": "Europe", "continent_code": "EU", "latitude": "45.53558", "longitude": "10.21472", "timezone": "Europe/Rome", "postal_code": "25100"}
{"network": "2a02:a03f:c77c::/48", "city": "Walcourt", "region": "Wallonia", "region_code": "WAL", "country": "Belgium", "country_code": "BE", "continent": "Europe", "continent_code": "EU", "latitude": "50.25401", "longitude": "4.43796", "timezone": "Europe/Brussels", "postal_code": "5650"}
{"network": "2001:268:942e:1600::/56", "city": "Yokkaichi", "region": "Mie", "region_code": "24", "country": "Japan", "country_code": "JP", "continent": "Asia", "continent_code": "AS", "latitude": "34.96667", "longitude": "136.61667", "timezone": "Asia/Tokyo", "postal_code": "510-0062"}
{"network": "2409:890f:e888:8000::/49", "city": "Shanghai", "region": "Shanghai", "region_code": "SH", "country": "China", "country_code": "CN", "continent": "Asia", "continent_code": "AS", "latitude": "31.22222", "longitude": "121.45806", "timezone": "Asia/Shanghai", "postal_code": "200000"}
{"network": "2001:df0:7648::/45", "city": "Sydney", "region": "New South Wales", "region_code": "NSW", "country": "Australia", "country_code": "AU", "continent": "Oceania", "continent_code": "OC", "latitude": "-33.86785", "longitude": "151.20732", "timezone": "Australia/Sydney", "postal_code": "1001"}
{"network": "2804:46cc:23d0:8000::/49", "city": "São Paulo", "region": "São Paulo", "region_code": "SP", "country": "Brazil", "country_code": "BR", "continent": "South America", "continent_code": "SA", "latitude": "-23.5475", "longitude": "-46.63611", "timezone": "America/Sao_Paulo", "postal_code": "01000-000"}
{"network": "2409:40e4:6e:2800::/56", "city": "Gaya", "region": "Bihar", "region_code": "BR", "country": "India", "country_code": "IN", "continent": "Asia", "continent_code": "AS", "latitude": "24.79686", "longitude": "85.00385", "timezone": "Asia/Kolkata", "postal_code": "823002"}
{"network": "64.255.91.142/31", "city": "Cedar City", "region": "Utah", "region_code": "UT", "country": "United States", "country_code": "US", "continent": "North America", "continent_code": "NA", "latitude": "37.67748", "longitude": "-113.06189", "timezone": "America/Denver", "postal_code": "84720"}
{"network": "2a11:fb80:2a8:9200::/56", "city": "Hamburg", "region": "Hamburg", "region_code": "HH", "country": "Germany", "country_code": "DE", "continent": "Europe", "continent_code": "EU", "latitude": "53.55073", "longitude": "9.99302", "timezone": "Europe/Berlin", "postal_code": "20038"}
{"network": "2a00:1fa4:41:c44::/62", "city": "Moscow", "region": "Moscow", "region_code": "MOW", "country": "Russia", "country_code": "RU", "continent": "Europe", "continent_code": "EU", "latitude": "55.75222", "longitude": "37.61556", "timezone": "Europe/Moscow", "postal_code": "101000"}
{"network": "2a02:a313:42d8:6d40::/58", "city": "Rawa Mazowiecka", "region": "Łódź Voivodeship", "region_code": "10", "country": "Poland", "country_code": "PL", "continent": "Europe", "continent_code": "EU", "latitude": "51.76437", "longitude": "20.25493", "timezone": "Europe/Warsaw", "postal_code": "96-200"}
{"network": "2804:524c:8c0a:c120::/59", "city": "Osasco", "region": "São Paulo", "region_code": "SP", "country": "Brazil", "country_code": "BR", "continent": "South America", "continent_code": "SA", "latitude": "-23.5325", "longitude": "-46.79167", "timezone": "America/Sao_Paulo", "postal_code": "06000-000"}
{"network": "36.92.125.8/29", "city": "Surabaya", "region": "East Java", "region_code": "JI", "country": "Indonesia", "country_code": "ID", "continent": "Asia", "continent_code": "AS", "latitude": "-7.24917", "longitude": "112.75083", "timezone": "Asia/Jakarta", "postal_code": ""}
{"network": "84.64.10.234/31", "city": "Banbury", "region": "England", "region_code": "ENG", "country": "United Kingdom", "country_code": "GB", "continent": "Europe", "continent_code": "EU", "latitude": "52.0632", "longitude": "-1.34222", "timezone": "Europe/London", "postal_code": "OX16"}
{"network": "2409:408c:1183:e100::/56", "city": "Kuppam", "region": "Andhra Pradesh", "region_code": "AP", "country": "India", "country_code": "IN", "continent": "Asia", "continent_code": "AS", "latitude": "12.74931", "longitude": "78.34189", "timezone": "Asia/Kolkata", "postal_code": "517425"}
{"network": "2409:4089:a20f:300::/56", "city": "Kanpur", "region": "Uttar Pradesh", "region_code": "UP", "country": "India", "country_code": "IN", "continent": "Asia", "continent_code": "AS", "latitude": "26.46523", "longitude": "80.34975", "timezone": "Asia/Kolkata", "postal_code": "208008"}
{"network": "240e:380:8975:4000::/51", "city": "Shanghai", "region": "Shanghai", "region_code": "SH", "country": "China", "country_code": "CN", "continent": "Asia", "continent_code": "AS", "latitude": "31.22222", "longitude": "121.45806", "timezone": "Asia/Shanghai", "postal_code": "200000"}
{"network": "69.250.115.82", "city": "Eldersburg", "region": "Maryland", "region_code": "MD", "country": "United States", "country_code": "US", "continent": "North America", "continent_code": "NA", "latitude": "39.40371", "longitude": "-76.95026", "timezone": "America/New_York", "postal_code": "21784"}
{"network": "67.103.13.176/29", "city": "New York City", "region": "New York", "region_code": "NY", "country": "United States", "country_code": "US", "continent": "North America", "continent_code": "NA", "latitude": "40.71427", "longitude": "-74.00597", "timezone": "America/New_York", "postal_code": "10001"}
{"network": "240e:469:b202:200::/56", "city": "Shanghai", "region": "Shanghai", "region_code": "SH", "country": "China", "country_code": "CN", "continent": "Asia", "continent_code": "AS", "latitude": "31.22222", "longitude": "121.45806", "timezone": "Asia/Shanghai", "postal_code": "200000"}
{"network": "2a02:26f7:c35c:820e::/64", "city": "Toppenish", "region": "Washington", "region_code": "WA", "country": "United States", "country_code": "US", "continent": "North America", "continent_code": "NA", "latitude": "46.37735", "longitude": "-120.30867", "timezone": "America/Los_Angeles", "postal_code": "98948"}
{"network": "2003:e7:7812::/64", "city": "Frankfurt am Main", "region": "Hesse", "region_code": "HE", "country": "Germany", "country_code": "DE", "continent": "Europe", "continent_code": "EU", "latitude": "50.11552", "longitude": "8.68417", "timezone": "Europe/Berlin", "postal_code": "60306"}
{"network": "2400:4164:25b5:9000::/56", "city": "Osaka", "region": "Osaka", "region_code": "27", "country": "Japan", "country_code": "JP", "continent": "Asia", "continent_code": "AS", "latitude": "34.69379", "longitude": "135.50107", "timezone": "Asia/Tokyo", "postal_code": "543-0062"}
{"network": "14.133.85.89", "city": "Kakamigahara", "region": "Gifu", "region_code": "21", "country": "Japan", "country_code": "JP", "continent": "Asia", "continent_code": "AS", "latitude": "35.41667", "longitude": "136.86667", "timezone": "Asia/Tokyo", "postal_code": "504-0971"}
{"network": "2a0e:42d:1de1:1000::/52", "city": "Monza", "region": "Lombardy", "region_code": "25", "country": "Italy", "country_code": "IT", "continent": "Europe", "continent_code": "EU", "latitude": "45.58005", "longitude": "9.27246", "timezone": "Europe/Rome", "postal_code": "20900"}
{"network": "140.222.253.65", "city": "Tampa", "region": "Florida", "region_code": "FL", "country": "United States", "country_code": "US", "continent": "North America", "continent_code": "NA", "latitude": "27.94752", "longitude": "-82.45843", "timezone": "America/New_York", "postal_code": "33606"}
{"network": "181.174.105.22", "city": "San Lucas Sacatepéquez", "region": "Sacatepéquez", "region_code": "16", "country": "Guatemala", "country_code": "GT", "continent": "North America", "continent_code": "NA", "latitude": "14.61075", "longitude": "-90.65681", "timezone": "America/Guatemala", "postal_code": "03008"}
{"network": "2804:7f0:9542:64b6::/63", "city": "São José do Rio Preto", "region": "São Paulo", "region_code": "SP", "country": "Brazil", "country_code": "BR", "continent": "South America", "continent_code": "SA", "latitude": "-20.81972", "longitude": "-49.37944", "timezone": "America/Sao_Paulo", "postal_code": "15000-000"}
{"network": "179.115.179.11", "city": "Fortaleza", "region": "Ceará", "region_code": "CE", "country": "Brazil", "country_code": "BR", "continent": "South America", "continent_code": "SA", "latitude": "-3.71722", "longitude": "-38.54306", "timezone": "America/Fortaleza", "postal_code": "60000-000"}
{"network": "2601:14d:4702:6d80::/59", "city": "Baltimore", "region": "Maryland", "region_code": "MD", "country": "United States", "country_code": "US", "continent": "North America", "continent_code": "NA", "latitude": "39.29038", "longitude": "-76.61219", "timezone": "America/New_York", "postal_code": "21203"}
{"network": "188.221.40.238/31", "city": "London", "region": "England", "region_code": "ENG", "country": "United Kingdom", "country_code": "GB", "continent": "Europe", "continent_code": "EU", "latitude": "51.50853", "longitude": "-0.12574", "timezone": "Europe/London", "postal_code": "E1W"}
{"network": "2409:8a70:5810::/56", "city": "Xi’an", "region": "Shaanxi", "region_code": "SN", "country": "China", "country_code": "CN", "continent": "Asia", "continent_code": "AS", "latitude": "34.25833", "longitude": "108.92861", "timezone": "Asia/Shanghai", "postal_code": "710000"}
{"network": "2606:54c3:0:163d::/64", "city": "Petrópolis", "region": "Rio de Janeiro", "region_code": "RJ", "country": "Brazil", "country_code": "BR", "continent": "South America", "continent_code": "SA", "latitude": "-22.505", "longitude": "-43.17861", "timezone": "America/Sao_Paulo", "postal_code": "25600-000"}
