start_ip,end_ip,join_key,city,region,country,latitude,longitude,postal_code,timezone,geoname_id,radius
2804:1410:848f:100::,2804:1410:8492:ffff:ffff:ffff:ffff:ffff,0:161:eeaf:5cc5:eca1:ce4b:b600:0,Romelândia,Santa Catarina,BR,-26.67611,-53.31444,89908-000,America/Sao_Paulo,3450950,200
2a00:6020:13d9:7b00::,2a00:6020:13d9:b2ff:ffff:ffff:ffff:ffff,2a00:6020::,Borken,North Rhine-Westphalia,DE,51.84382,6.85774,46325,Europe/Berlin,2946228,5000
240e:36b:6aee:c100::,240e:36b:6aee:ffff:ffff:ffff:ffff:ffff,240e:36b:4000::,Shanghai,Shanghai,CN,31.22222,121.45806,200000,Asia/Shanghai,1796236,1000
2a01:41e1:2e9b:7000::,2a01:41e1:2e9b:70ff:ffff:ffff:ffff:ffff,2a01:41e1::,Geesthacht,Schleswig-Holstein,DE,53.43575,10.3779,21502,Europe/Berlin,2922102,1000
2608:e6d0:c000::,2608:e6d0:ffff:ffff:ffff:ffff:ffff:ffff,2608:e6d0:c000::,New York City,New York,US,40.71427,-74.00597,10001,America/New_York,5128581,5000
2001:1a81:53eb:9700::,2001:1a81:53eb:98ff:ffff:ffff:ffff:ffff,2001:1a81:4000::,Berlin,Berlin,DE,52.52437,13.41053,10119,Europe/Berlin,2950159,5000
240e:381:72f9:4b00::,240e:381:72f9:4bff:ffff:ffff:ffff:ffff,240e:381:4000::,Foshan,Guangdong,CN,23.02677,113.13148,528000,Asia/Shanghai,1811103,5000
240e:390:2506:dc00::,240e:390:2506:dcff:ffff:ffff:ffff:ffff,240e:390::,Hangzhou,Zhejiang,CN,30.29365,120.16142,310000,Asia/Shanghai,1808926,5000
260f:e23:8000::,260f:e23:bfff:ffff:ffff:ffff:ffff:ffff,260f:e23:8000::,New York City,New York,US,40.71427,-74.00597,10001,America/New_York,5128581,5000
2003:cf:4f4e:e300::,2003:cf:4f4e:e3ff:ffff:ffff:ffff:ffff,2003:cf:4000::,Bremen,Bremen,DE,53.07582,8.80717,28195,Europe/Berlin,2944388,5000
2408:827a:45f:4700::,2408:827a:45f:48ff:ffff:ffff:ffff:ffff,2408:827a::,Jinrongjie,Beijing,CN,39.91222,116.35615,101100,Asia/Shanghai,8389504,5000
240f:c4:f07f::,240f:c4:f07f:ff:ffff:ffff:ffff:ffff,240f:c4:c000::,Togitsu,Nagasaki,JP,32.8451,129.8269,851-2108,Asia/Tokyo,1850269,5
240f:cf:bb6a::,240f:cf:bb6a:ff:ffff:ffff:ffff:ffff,240f:cf:8000::,Naha,Okinawa,JP,26.213,127.67851,900-0012,Asia/Tokyo,1856035,1000
2001:9e8:26cc:3d00::,2001:9e8:26cc:3dff:ffff:ffff:ffff:ffff,2001:9e8::,Lorsch,Hesse,DE,49.65,8.56667,64653,Europe/Berlin,2875877,1000
2405:4802:98:2f00::,2405:4802:98:2fff:ffff:ffff:ffff:ffff,0:12f:9d41:da6b:6ecf:5b41:5200:0,Sơn Tây,Hanoi,VN,21.14053,105.50686,53650,Asia/Bangkok,1567621,200
2003:ef:4f4f:f400::,2003:ef:4f4f:f4ff:ffff:ffff:ffff:ffff,2003:ef:4000::,Bremen,Bremen,DE,53.07582,8.80717,28195,Europe/Berlin,2944388,5000
2a00:4b12::,2a00:4b12:3fff:ffff:ffff:ffff:ffff:ffff,2a00:4b12::,Amsterdam,North Holland,NL,52.37403,4.88969,1012,Europe/Amsterdam,2759794,5000
2607:8521:c000::,2607:8521:ffff:ffff:ffff:ffff:ffff:ffff,2607:8521:c000::,New York City,New York,US,40.71427,-74.00597,10001,America/New_York,5128581,5000
2804:30c:166a:100::,2804:30c:166a:ffff:ffff:ffff:ffff:ffff,2804:30c::,Blumenau,Santa Catarina,BR,-26.91944,-49.06611,89000-000,America/Sao_Paulo,3469968,1000
2403:e8e:8000::,2403:e8e:bfff:ffff:ffff:ffff:ffff:ffff,2403:e8e:8000::,Sydney,New South Wales,AU,-33.86785,151.20732,1001,Australia/Sydney,2147714,1000
2600:380:b8c0:ec00::,2600:380:b8c0:ecff:ffff:ffff:ffff:ffff,0:148:2bc2:eab0:8517:64dd:3000:0,Victoria,Texas,US,28.80527,-97.0036,77901,America/Chicago,4739157,10
2600:100f:b083:7400::,2600:100f:b083:74ff:ffff:ffff:ffff:ffff,2600:100f:8000::,Seattle,Washington,US,47.60621,-122.33207,98101,America/Los_Angeles,5809844,1000
2636:a0fe:4000::,2636:a0fe:7fff:ffff:ffff:ffff:ffff:ffff,2636:a0fe:4000::,New York City,New York,US,40.71427,-74.00597,10001,America/New_York,5128581,5000
2401:d800:9574:7100::,2401:d800:9574:71ff:ffff:ffff:ffff:ffff,2401:d800:8000::,Hanoi,Hanoi,VN,21.0245,105.84117,10000,Asia/Bangkok,1581130,1000
2402:6b00:5331:3600::,2402:6b00:5331:37ff:ffff:ffff:ffff:ffff,2402:6b00:4000::,Kuwana,Mie,JP,35.05192,136.66958,511-0009,Asia/Tokyo,11468429,1000
2003:d0:671d:b100::,2003:d0:671d:b1ff:ffff:ffff:ffff:ffff,2003:d0:4000::,Ochsenhausen,Baden-Wurttemberg,DE,48.07029,9.9503,88416,Europe/Berlin,2858326,1000
2003:eb:2f24:3400::,2003:eb:2f24:35ff:ffff:ffff:ffff:ffff,2003:eb::,Bremen,Bremen,DE,53.07582,8.80717,28195,Europe/Berlin,2944388,5000
2a02:8388:6a80::,2a02:8388:6a80:64ff:ffff:ffff:ffff:ffff,2a02:8388:4000::,Vienna,Vienna,AT,48.20849,16.37208,1010,Europe/Vienna,2761369,1000
2634:2662:8000::,2634:2662:bfff:ffff:ffff:ffff:ffff:ffff,0:14c:7dbb:f380:a770:73fe:7a00:0,New York City,New York,US,40.71427,-74.00597,10001,America/New_York,5128581,5000
2a02:e0:6aeb:3d00::,2a02:e0:6aeb:40ff:ffff:ffff:ffff:ffff,2a02:e0:4000::,Maltepe,Istanbul,TR,40.9304,29.132,34843,Europe/Istanbul,741763,5000
2003:e2:5f0f:4b00::,2003:e2:5f0f:4bff:ffff:ffff:ffff:ffff,2003:e2:4000::,Hösbach,Bavaria,DE,50.00646,9.20765,63768,Europe/Berlin,2898494,5000
240f:d944:4000::,240f:d944:7fff:ffff:ffff:ffff:ffff:ffff,240f:d944:4000::,Sydney,New South Wales,AU,-33.86785,151.20732,1001,Australia/Sydney,2147714,1000
2003:c9:9f02:3b00::,2003:c9:9f02:3bff:ffff:ffff:ffff:ffff,2003:c9:8000::,Aachen,North Rhine-Westphalia,DE,50.77664,6.08342,52062,Europe/Berlin,3247449,5000
2a04:c47f::,2a04:c47f:3fff:ffff:ffff:ffff:ffff:ffff,2a04:c47f::,Amsterdam,North Holland,NL,52.37403,4.88969,1012,Europe/Amsterdam,2759794,5000
260d:caed:c000::,260d:caed:ffff:ffff:ffff:ffff:ffff:ffff,260d:caed:c000::,New York City,New York,US,40.71427,-74.00597,10001,America/New_York,5128581,5000
2a01:c22:c974:c500::,2a01:c22:c974:c5ff:ffff:ffff:ffff:ffff,2a01:c22:c000::,Herrenberg,Baden-Wurttemberg,DE,48.59523,8.86648,71083,Europe/Berlin,2905826,1000
240f:66:f166:100::,240f:66:f169:ffff:ffff:ffff:ffff:ffff,240f:66:c000::,Nihonbashi-bakurochō,Tokyo,JP,35.691,139.7679,101-0047,Asia/Tokyo,10963047,5000
2603:301f:1b09:ca00::,2603:301f:1b09:dfff:ffff:ffff:ffff:ffff,2603:301f::,Pittsburgh,Pennsylvania,US,40.44062,-79.99589,15212,America/New_York,5206379,5000
2003:de:df39:400::,2003:de:df39:4ff:ffff:ffff:ffff:ffff,2003:de:c000::,Mainz,Rheinland-Pfalz,DE,49.98419,8.2791,55118,Europe/Berlin,2874225,1000
2a02:3100:5d52:d200::,2a02:3100:5d52:d2ff:ffff:ffff:ffff:ffff,2a02:3100:4000::,Sexau,Baden-Wurttemberg,DE,48.10209,7.90757,79350,Europe/Berlin,2832841,1000
2409:4061:219d:ab00::,2409:4061:219d:abff:ffff:ffff:ffff:ffff,0:130:1c1c:2309:e9cc:38f2:8d00:0,Kharagpur,West Bengal,IN,22.33971,87.32501,721301,Asia/Kolkata,1266976,200
2a02:842a:80ca:9c00::,2a02:842a:80ca:9cff:ffff:ffff:ffff:ffff,2a02:842a:8000::,Presles-en-Brie,Île-de-France,FR,48.71527,2.74112,77220,Europe/Paris,2985402,1000
2001:2044:752:1200::,2001:2044:752:2cff:ffff:ffff:ffff:ffff,0:fc:9666:d079:c673:d1ff:8c00:0,Stockholm,Stockholm,SE,59.32938,18.06871,100 04,Europe/Stockholm,2673730,5000
2a17:ea40:c000::,2a17:ea40:ffff:ffff:ffff:ffff:ffff:ffff,2a17:ea40:c000::,Amsterdam,North Holland,NL,52.37403,4.88969,1012,Europe/Amsterdam,2759794,5000
2a0e:1c7f::,2a0e:1c7f:3fff:ffff:ffff:ffff:ffff:ffff,2a0e:1c7f::,Amsterdam,North Holland,NL,52.37403,4.88969,1012,Europe/Amsterdam,2759794,5000
240b:deb3:8000::,240b:deb3:bfff:ffff:ffff:ffff:ffff:ffff,240b:deb3:8000::,Sydney,New South Wales,AU,-33.86785,151.20732,1001,Australia/Sydney,2147714,1000
2408:832e:1082:5c00::,2408:832e:1082:5cff:ffff:ffff:ffff:ffff,2408:832e::,Beijing,Beijing,CN,39.9075,116.39723,100000,Asia/Shanghai,1816670,5000
2804:6ffc:102::,2804:6ffc:102:ffff:ffff:ffff:ffff:ffff,2804:6ffc::,Caldas Novas,Goiás,BR,-17.74431,-48.62789,75690-000,America/Sao_Paulo,3468100,1000
2a01:827:258a:fb00::,2a01:827:258b:41ff:ffff:ffff:ffff:ffff,2a01:827::,Madrid,Madrid,ES,40.4975,-3.6637,28050,Europe/Madrid,3117735,5000
2a02:9672::,2a02:9672:3fff:ffff:ffff:ffff:ffff:ffff,2a02:9672::,Amsterdam,North Holland,NL,52.37403,4.88969,1012,Europe/Amsterdam,2759794,5000
2600:c084:4000::,2600:c084:7fff:ffff:ffff:ffff:ffff:ffff,2600:c084:4000::,Englewood,Colorado,US,39.6123,-104.8799,80111,America/Denver,5421250,5000
2a02:560:53bb:5400::,2a02:560:53bb:55ff:ffff:ffff:ffff:ffff,2a02:560:4000::,Burgdorf,Lower Saxony,DE,52.14434,10.21763,38272,Europe/Berlin,2941406,1000
2a04:8a70:8000::,2a04:8a70:bfff:ffff:ffff:ffff:ffff:ffff,2a04:8a70:8000::,Amsterdam,North Holland,NL,52.37403,4.88969,1012,Europe/Amsterdam,2759794,5000
2001:4453:356:b300::,2001:4453:356:b3ff:ffff:ffff:ffff:ffff,0:fc:9e2f:7e11:737a:3a1f:9500:0,Santo Tomas,Calabarzon,PH,14.1079,121.14136,4232,Asia/Manila,1687534,1000
2a05:80b6::,2a05:80b6:3fff:ffff:ffff:ffff:ffff:ffff,2a05:80b6::,Amsterdam,North Holland,NL,52.37403,4.88969,1012,Europe/Amsterdam,2759794,5000
2802:be1f:8000::,2802:be1f:bfff:ffff:ffff:ffff:ffff:ffff,2802:be1f:8000::,Montevideo,Montevideo Department,UY,-34.90328,-56.18816,11100,America/Montevideo,3441575,5000
2a00:23c5:c618:ef00::,2a00:23c5:c618:f1ff:ffff:ffff:ffff:ffff,2a00:23c5:c000::,London,England,GB,51.50853,-0.12574,E1W,Europe/London,2643743,5000
240e:388:a397:1000::,240e:388:a397:80ff:ffff:ffff:ffff:ffff,240e:388:8000::,Hongkou,Shanghai,CN,31.25,121.48917,200000,Asia/Shanghai,1808090,5000
2607:20ad:c000::,2607:20ad:ffff:ffff:ffff:ffff:ffff:ffff,2607:20ad:c000::,New York City,New York,US,40.71427,-74.00597,10001,America/New_York,5128581,5000
2620:74:6f::,2620:74:6f:2fff:ffff:ffff:ffff:ffff,0:14a:b101:42a0:c8b:9610:4a00:0,Chicago,Illinois,US,41.85003,-87.65005,60666,America/Chicago,4887398,5000
2001:8a0:e899::,2001:8a0:e899:4ff:ffff:ffff:ffff:ffff,2001:8a0:c000::,Monsanto,Santarém,PT,39.46203,-8.7118,2380-575,Europe/Lisbon,2266249,5000
2a04:cec0:112f:a600::,2a04:cec0:112f:a7ff:ffff:ffff:ffff:ffff,2a04:cec0::,Bordeaux,Nouvelle-Aquitaine,FR,44.84044,-0.5805,33000,Europe/Paris,3031582,200
2806:e416:4000::,2806:e416:7fff:ffff:ffff:ffff:ffff:ffff,2806:e416:4000::,Montevideo,Montevideo Department,UY,-34.90328,-56.18816,11100,America/Montevideo,3441575,5000
2406:7609:4000::,2406:7609:7fff:ffff:ffff:ffff:ffff:ffff,0:12f:c6a3:e2dc:a09c:e45e:9300:0,Sydney,New South Wales,AU,-33.86785,151.20732,1001,Australia/Sydney,2147714,1000
2003:d1:a72f:1a00::,2003:d1:a72f:1aff:ffff:ffff:ffff:ffff,2003:d1:8000::,Wiesentheid,Bavaria,DE,49.79451,10.34509,97353,Europe/Berlin,2809191,1000
2a0f:1ae5::,2a0f:1ae5:3fff:ffff:ffff:ffff:ffff:ffff,2a0f:1ae5::,Amsterdam,North Holland,NL,52.37403,4.88969,1012,Europe/Amsterdam,2759794,5000
2604:7bc9:c000::,2604:7bc9:ffff:ffff:ffff:ffff:ffff:ffff,2604:7bc9:c000::,New York City,New York,US,40.71427,-74.00597,10001,America/New_York,5128581,5000
2001:a61:612a:b800::,2001:a61:612a:baff:ffff:ffff:ffff:ffff,2001:a61:4000::,Haldenwang,Bavaria,DE,48.43763,10.44817,89356,Europe/Berlin,2911579,1000
2a01:db1e:4000::,2a01:db1e:7fff:ffff:ffff:ffff:ffff:ffff,2a01:db1e:4000::,Paris,Île-de-France,FR,48.86485,2.33355,75008,Europe/Paris,2988507,5000
2a0a:ad80:4000::,2a0a:ad80:7fff:ffff:ffff:ffff:ffff:ffff,2a0a:ad80:4000::,Parkstone,England,GB,50.73853,-1.91983,BH12,Europe/London,2640601,5000
2003:f5:8f21:8600::,2003:f5:8f21:86ff:ffff:ffff:ffff:ffff,2003:f5:8000::,Taucha,Saxony,DE,51.38333,12.48333,04425,Europe/Berlin,2823836,1000
2a00:23c4:2799::,2a00:23c4:2799:ddff:ffff:ffff:ffff:ffff,2a00:23c4::,London,England,GB,51.50853,-0.12574,E1W,Europe/London,2643743,5000
2a02:2d93:c000::,2a02:2d93:ffff:ffff:ffff:ffff:ffff:ffff,2a02:2d93:c000::,Amsterdam,North Holland,NL,52.37403,4.88969,1012,Europe/Amsterdam,2759794,5000
240f:70:805e:100::,240f:70:8061:ffff:ffff:ffff:ffff:ffff,240f:70:8000::,Nihonbashi-bakurochō,Tokyo,JP,35.691,139.7679,101-0047,Asia/Tokyo,10963047,5000
2409:4089:811e:9000::,2409:4089:811e:90ff:ffff:ffff:ffff:ffff,0:130:1c33:f5ad:aa9:ad47:dd00:0,Prayagraj,Uttar Pradesh,IN,25.44478,81.84322,211002,Asia/Kolkata,1278994,500
2804:5658:200d:100::,2804:5658:200d:b1ff:ffff:ffff:ffff:ffff,0:161:fc68:905b:45fb:4b1b:9a00:0,Feira de Santana,Bahia,BR,-12.26667,-38.96667,44000-000,America/Bahia,3463478,5000
2605:8c2::,2605:8c2:3fff:ffff:ffff:ffff:ffff:ffff,2605:8c2::,New York City,New York,US,40.71427,-74.00597,10001,America/New_York,5128581,5000
240f:64:6d43::,240f:64:6d43:ff:ffff:ffff:ffff:ffff,240f:64:4000::,Ōta,Gunma,JP,36.3,139.36667,339-0052,Asia/Tokyo,1853677,1000
2a02:8070:8883:1200::,2a02:8070:8883:12ff:ffff:ffff:ffff:ffff,2a02:8070:8000::,Dettingen an der Erms,Baden-Wurttemberg,DE,48.53077,9.34458,72581,Europe/Berlin,2937898,1000
2a17:e478:4000::,2a17:e478:7fff:ffff:ffff:ffff:ffff:ffff,2a17:e478:4000::,Amsterdam,North Holland,NL,52.37403,4.88969,1012,Europe/Amsterdam,2759794,5000
2001:861:2082:8c00::,2001:861:2082:8cff:ffff:ffff:ffff:ffff,0:fc:9294:427b:45ce:d3e4:8d00:0,Bassillac,Nouvelle-Aquitaine,FR,45.19086,0.81332,24330,Europe/Paris,3034665,1000
2400:2411:a800:100::,2400:2411:a800:3ff:ffff:ffff:ffff:ffff,0:12e:f3f9:b20a:95d9:5a48:ff00:0,Nagareyama,Chiba,JP,35.8563,139.90266,270-0164,Asia/Tokyo,1856184,1000
2001:16b8:aea8:1900::,2001:16b8:aea8:19ff:ffff:ffff:ffff:ffff,2001:16b8:8000::,Siegen,North Rhine-Westphalia,DE,50.87481,8.02431,57072,Europe/Berlin,2832495,1000
2003:e1:a73f:fa00::,2003:e1:a73f:faff:ffff:ffff:ffff:ffff,2003:e1:8000::,Hambergen,Lower Saxony,DE,53.30826,8.8252,27729,Europe/Berlin,2911322,1000
2802:8010:818d:2b00::,2802:8010:818d:2bff:ffff:ffff:ffff:ffff,0:161:c363:2466:5beb:17e8:5e00:0,Buenos Aires,Buenos Aires F.D.,AR,-34.61315,-58.37723,1871,America/Argentina/Buenos_Aires,3435910,5000
240f:39:9f91::,240f:39:9f91:ff:ffff:ffff:ffff:ffff,240f:39:8000::,Nishitōkyō,Tokyo,JP,35.73355,139.54761,188-0003,Asia/Tokyo,11611931,1000
2001:7d0:80e8:d100::,2001:7d0:80e8:dfff:ffff:ffff:ffff:ffff,2001:7d0:8000::,Tallinn,Harjumaa,EE,59.4241,24.7041,10616,Europe/Tallinn,588409,5000
240f:42:36a7::,240f:42:36a7:ff:ffff:ffff:ffff:ffff,240f:42::,Sapporo,Hokkaido,JP,43.0261,141.4714,004-0022,Asia/Tokyo,2128295,5
2a02:26f7:c348:8015::,2a02:26f7:c348:8015:ffff:ffff:ffff:ffff,2a02:26f7:c000::,San Luis Obispo,California,US,35.28275,-120.65962,93403,America/Los_Angeles,5392323,5000
2401:4900:b82:4f00::,2401:4900:b82:4fff:ffff:ffff:ffff:ffff,0:12f:1c53:b141:1b65:c4b4:b400:0,Muzaffarnagar,Uttar Pradesh,IN,29.47091,77.70332,251001,Asia/Kolkata,1262332,500
280d:b2e3:c000::,280d:b2e3:ffff:ffff:ffff:ffff:ffff:ffff,280d:b2e3:c000::,Montevideo,Montevideo Department,UY,-34.90328,-56.18816,11100,America/Montevideo,3441575,5000
2804:57c:152d::,2804:57c:152d:ff:ffff:ffff:ffff:ffff,2804:57c::,Uruaçu,Goiás,BR,-14.52472,-49.14083,76400-000,America/Sao_Paulo,3445713,1000
2402:3a80:caf:9300::,2402:3a80:caf:93ff:ffff:ffff:ffff:ffff,2402:3a80::,Pimpri,Maharashtra,IN,18.62292,73.80696,412303,Asia/Kolkata,1259652,500
260b:fa7a:c000::,260b:fa7a:ffff:ffff:ffff:ffff:ffff:ffff,260b:fa7a:c000::,New York City,New York,US,40.71427,-74.00597,10001,America/New_York,5128581,5000
2a0e:410:d24d::,2a0e:410:d24d:ff:ffff:ffff:ffff:ffff,2a0e:410:c000::,Vicenza,Veneto,IT,45.54672,11.5475,36100,Europe/Rome,3164419,1000
260e:dbb:8000::,260e:dbb:bfff:ffff:ffff:ffff:ffff:ffff,260e:dbb:8000::,New York City,New York,US,40.71427,-74.00597,10001,America/New_York,5128581,5000
2a0f:7951:8000::,2a0f:7951:bfff:ffff:ffff:ffff:ffff:ffff,2a0f:7951:8000::,Amsterdam,North Holland,NL,52.37403,4.88969,1012,Europe/Amsterdam,2759794,5000
2a01:c22:91da:c300::,2a01:c22:91da:c3ff:ffff:ffff:ffff:ffff,2a01:c22:8000::,Hannover,Lower Saxony,DE,52.37052,9.73322,30159,Europe/Berlin,2910831,1000
2003:cf:ff00:2d00::,2003:cf:ff00:2dff:ffff:ffff:ffff:ffff,2003:cf:c000::,Neustadt an der Orla,Thuringia,DE,50.7364,11.74619,07806,Europe/Berlin,8354429,1000
2001:e68:641f:da00::,2001:e68:641f:deff:ffff:ffff:ffff:ffff,2001:e68:4000::,Kuala Lumpur,Kuala Lumpur,MY,3.1412,101.68653,50050,Asia/Kuala_Lumpur,1735161,5000
