start_ip,end_ip,join_key,city,region,country,latitude,longitude,postal_code,timezone,geoname_id,radius
2a01:c22:bc60:4a00::,2a01:c22:bc60:4aff:ffff:ffff:ffff:ffff,2a01:c22:8000::,Düsseldorf,North Rhine-Westphalia,DE,51.22172,6.77616,40210,Europe/Berlin,2934246,5000
2a00:1ca0:5001:4000::,2a00:1ca0:5001:40ff:ffff:ffff:ffff:ffff,2a00:1ca0:4000::,Lampertswalde,Saxony,DE,51.31108,13.67694,01561,Europe/Berlin,2881682,1000
240d:0:8104::,240d:0:8104:3ff:ffff:ffff:ffff:ffff,240d:0:8000::,Nagano,Nagano,JP,36.65,138.18333,399-5503,Asia/Tokyo,1856215,100
2003:e4:3f39:f00::,2003:e4:3f39:54ff:ffff:ffff:ffff:ffff,2003:e4::,Bremen,Bremen,DE,53.07582,8.80717,28195,Europe/Berlin,2944388,1000
2409:4061:2c9c:1200::,2409:4061:2c9c:12ff:ffff:ffff:ffff:ffff,0:130:1c1c:2309:e9cc:38f2:8d00:0,Medinīpur,West Bengal,IN,22.42114,87.32257,721121,Asia/Kolkata,1263220,200
2001:9e8:b5d6:4000::,2001:9e8:b5d6:47ff:ffff:ffff:ffff:ffff,2001:9e8:8000::,Schöngeising,Bavaria,DE,48.14135,11.20399,82296,Europe/Berlin,2836615,1000
2a1b:ef03:4000::,2a1b:ef03:7fff:ffff:ffff:ffff:ffff:ffff,2a1b:ef03:4000::,Amsterdam,North Holland,NL,52.37403,4.88969,1012,Europe/Amsterdam,2759794,5000
2408:7588:4000::,2408:7588:7fff:ffff:ffff:ffff:ffff:ffff,0:130:732:20ac:d4f0:19a2:7e00:0,Santa Teresa,Northern Territory,AU,-24.1307,134.3733,0872,Australia/Darwin,8219824,5000
2600:1015:a110:1f00::,2600:1015:a110:1fff:ffff:ffff:ffff:ffff,0:148:2dd0:2d2b:7f0d:b64b:8b00:0,Chicago,Illinois,US,41.85003,-87.65005,60666,America/Chicago,4887398,5000
2a1e:9e5b:4000::,2a1e:9e5b:7fff:ffff:ffff:ffff:ffff:ffff,2a1e:9e5b:4000::,Amsterdam,North Holland,NL,52.37403,4.88969,1012,Europe/Amsterdam,2759794,5000
2a02:c7c:de87:2b00::,2a02:c7c:de87:2bff:ffff:ffff:ffff:ffff,2a02:c7c:c000::,Eton Wick,England,GB,51.49722,-0.63437,SL4,Europe/London,6942331,1000
2a0b:7575:4000::,2a0b:7575:7fff:ffff:ffff:ffff:ffff:ffff,2a0b:7575:4000::,Amsterdam,North Holland,NL,52.37403,4.88969,1012,Europe/Amsterdam,2759794,5000
2a0e:fb41:39f8:9b00::,2a0e:fb41:39f8:acff:ffff:ffff:ffff:ffff,2a0e:fb41::,Elektrostal’,Moscow Oblast,RU,55.78647,38.45713,144000,Europe/Moscow,563523,1000
2401:d800:2d25:9200::,2401:d800:2d25:92ff:ffff:ffff:ffff:ffff,2401:d800::,Lào Cai,Lào Cai Province,VN,22.48556,103.97066,31109,Asia/Bangkok,1576303,1000
2638:9a5::,2638:9a5:3fff:ffff:ffff:ffff:ffff:ffff,2638:9a5::,New York City,New York,US,40.71427,-74.00597,10001,America/New_York,5128581,5000
2003:c8:174c:e000::,2003:c8:174c:e4ff:ffff:ffff:ffff:ffff,2003:c8::,Meckenbeuren,Baden-Wurttemberg,DE,47.7,9.56667,88074,Europe/Berlin,2872585,5000
240f:2ed5:8000::,240f:2ed5:bfff:ffff:ffff:ffff:ffff:ffff,240f:2ed5:8000::,Santa Teresa,Northern Territory,AU,-24.1307,134.3733,0872,Australia/Darwin,8219824,5000
2633:3ff5::,2633:3ff5:3fff:ffff:ffff:ffff:ffff:ffff,2633:3ff5::,New York City,New York,US,40.71427,-74.00597,10001,America/New_York,5128581,5000
2003:fd:6712:5b00::,2003:fd:6712:5bff:ffff:ffff:ffff:ffff,2003:fd:4000::,Schneeberg,Saxony,DE,50.59465,12.64139,08289,Europe/Berlin,2837470,1000
2003:ed:573d:c000::,2003:ed:573d:dfff:ffff:ffff:ffff:ffff,2003:ed:4000::,Klink,Mecklenburg-Vorpommern,DE,53.47758,12.62131,17192,Europe/Berlin,2887686,1000
2409:4081:d0c:f000::,2409:4081:d0c:f1ff:ffff:ffff:ffff:ffff,0:130:1c2c:ae34:15f4:3b83:2100:0,Mumbai,Maharashtra,IN,18.975,72.8258,400002,Asia/Kolkata,1275339,1000
2003:c8:9f22:5200::,2003:c8:9f22:52ff:ffff:ffff:ffff:ffff,2003:c8:8000::,Nierstein,Rheinland-Pfalz,DE,49.87003,8.33647,55283,Europe/Berlin,2862485,1000
2001:4453:5e0:4300::,2001:4453:5e0:44ff:ffff:ffff:ffff:ffff,0:fc:9e2f:7e11:737a:3a1f:9500:0,Santa Cruz,Calabarzon,PH,14.2814,121.4161,1104,Asia/Manila,1688253,1000
2001:2043:de01:1100::,2001:2043:de01:11ff:ffff:ffff:ffff:ffff,2001:2043:c000::,Stockholm,Stockholm,SE,59.32938,18.06871,100 04,Europe/Stockholm,2673730,5000
263a:9320::,263a:9320:3fff:ffff:ffff:ffff:ffff:ffff,263a:9320::,New York City,New York,US,40.71427,-74.00597,10001,America/New_York,5128581,5000
2605:6534:8000::,2605:6534:bfff:ffff:ffff:ffff:ffff:ffff,0:148:e134:6ab8:351a:b922:ca00:0,New York City,New York,US,40.71427,-74.00597,10001,America/New_York,5128581,5000
2001:1890:1f79:3100::,2001:1890:1f79:32ff:ffff:ffff:ffff:ffff,0:fc:95e7:6db5:c0c:8b0c:b200:0,Middletown,New Jersey,US,40.39428,-74.11709,07748,America/New_York,5101170,5000
2a12:1775:c000::,2a12:1775:ffff:ffff:ffff:ffff:ffff:ffff,2a12:1775:c000::,Amsterdam,North Holland,NL,52.37403,4.88969,1012,Europe/Amsterdam,2759794,5000
280e:9834:4000::,280e:9834:7fff:ffff:ffff:ffff:ffff:ffff,280e:9834:4000::,Montevideo,Montevideo Department,UY,-34.90328,-56.18816,11100,America/Montevideo,3441575,5000
2001:506:72d4:2d7::,2001:506:72d4:35d:ffff:ffff:ffff:ffff,0:fc:916e:f102:c128:2b8a:2400:0,Redmond,Washington,US,47.67399,-122.12151,98052,America/Los_Angeles,5808079,5000
2600:5c00:35fb::,2600:5c00:35fb:ffff:ffff:ffff:ffff:ffff,2600:5c00::,Santa Ana,California,US,33.754,-117.7919,92705,America/Los_Angeles,5392900,5000
2402:3a80:533:ca00::,2402:3a80:533:cbff:ffff:ffff:ffff:ffff,2402:3a80::,Chennai,Tamil Nadu,IN,13.08784,80.27847,600001,Asia/Kolkata,1264527,50
2a0c:13f::,2a0c:13f:3fff:ffff:ffff:ffff:ffff:ffff,2a0c:13f::,Amsterdam,North Holland,NL,52.37403,4.88969,1012,Europe/Amsterdam,2759794,5000
2001:8a0:c45a:2200::,2001:8a0:c45a:24ff:ffff:ffff:ffff:ffff,2001:8a0:c000::,Monsanto,Santarém,PT,39.46203,-8.7118,2380-575,Europe/Lisbon,2266249,5000
2600:f71b:c000::,2600:f71b:ffff:ffff:ffff:ffff:ffff:ffff,2600:f71b:c000::,New York City,New York,US,40.71427,-74.00597,10001,America/New_York,5128581,5000
2003:db:8f07:a700::,2003:db:8f07:a7ff:ffff:ffff:ffff:ffff,2003:db:8000::,Nürnberg,Bavaria,DE,49.45421,11.07752,90402,Europe/Berlin,2861650,5000
2a07:dab8::,2a07:dab8:3fff:ffff:ffff:ffff:ffff:ffff,2a07:dab8::,Amsterdam,North Holland,NL,52.37403,4.88969,1012,Europe/Amsterdam,2759794,5000
2a02:bc0d::,2a02:bc0d:3fff:ffff:ffff:ffff:ffff:ffff,2a02:bc0d::,Amsterdam,North Holland,NL,52.37403,4.88969,1012,Europe/Amsterdam,2759794,5000
2001:4451:13e:100::,2001:4451:13e:3fff:ffff:ffff:ffff:ffff,0:fc:9e2d:d68d:3bdc:a044:5300:0,Manila,Metro Manila,PH,14.6042,120.9822,1001,Asia/Manila,1701668,1000
2a0e:e1ce:c000::,2a0e:e1ce:ffff:ffff:ffff:ffff:ffff:ffff,2a0e:e1ce:c000::,Amsterdam,North Holland,NL,52.37403,4.88969,1012,Europe/Amsterdam,2759794,5000
2800:a4:a0f:9f00::,2800:a4:a0f:9fff:ffff:ffff:ffff:ffff,2800:a4::,Montevideo,Montevideo Department,UY,-34.90328,-56.18816,11100,America/Montevideo,3441575,1000
240f:c3:fb64:100::,240f:c3:fb68:ffff:ffff:ffff:ffff:ffff,240f:c3:c000::,Tokyo,Tokyo,JP,35.691,139.7679,101-0047,Asia/Tokyo,1850147,1000
2409:40f4:2a:b800::,2409:40f4:2a:b8ff:ffff:ffff:ffff:ffff,2409:40f4::,Sivakasi,Tamil Nadu,IN,9.44999,77.79797,626135,Asia/Kolkata,1255947,500
240f:75:6269:100::,240f:75:626d:ffff:ffff:ffff:ffff:ffff,240f:75:4000::,Tokyo,Tokyo,JP,35.691,139.7679,101-0047,Asia/Tokyo,1850147,1000
2a04:a458:8000::,2a04:a458:bfff:ffff:ffff:ffff:ffff:ffff,2a04:a458:8000::,Amsterdam,North Holland,NL,52.37403,4.88969,1012,Europe/Amsterdam,2759794,5000
2a19:12ae:8000::,2a19:12ae:bfff:ffff:ffff:ffff:ffff:ffff,2a19:12ae:8000::,Amsterdam,North Holland,NL,52.37403,4.88969,1012,Europe/Amsterdam,2759794,5000
2409:4065:384:da00::,2409:4065:384:dbff:ffff:ffff:ffff:ffff,0:130:1c1f:7212:5907:6ca9:1100:0,Guwahati,Assam,IN,26.1844,91.7458,781030,Asia/Kolkata,1271476,500
2a02:560:56f3:bc00::,2a02:560:56f3:bcff:ffff:ffff:ffff:ffff,2a02:560:4000::,Hannover,Lower Saxony,DE,52.37052,9.73322,30159,Europe/Berlin,2910831,5000
2a02:b30:fda:7100::,2a02:b30:fda:71ff:ffff:ffff:ffff:ffff,2a02:b30::,Rheinbach,North Rhine-Westphalia,DE,50.62562,6.94911,53359,Europe/Berlin,2847666,1000
2001:1890:16e3:cf00::,2001:1890:16e3:cfff:ffff:ffff:ffff:ffff,0:fc:95e7:6db5:c0c:8b0c:b200:0,Memphis,Tennessee,US,35.0514,-89.9265,38118,America/Chicago,4641239,5000
2401:d800:f662:a900::,2401:d800:f662:a9ff:ffff:ffff:ffff:ffff,2401:d800:c000::,Ho Chi Minh City,Ho Chi Minh,VN,10.82302,106.62965,71606,Asia/Ho_Chi_Minh,1566083,1000
2a12:5e8b:4000::,2a12:5e8b:7fff:ffff:ffff:ffff:ffff:ffff,2a12:5e8b:4000::,Amsterdam,North Holland,NL,52.37403,4.88969,1012,Europe/Amsterdam,2759794,5000
240d:3424::,240d:3424:3fff:ffff:ffff:ffff:ffff:ffff,240d:3424::,Santa Teresa,Northern Territory,AU,-24.1307,134.3733,0872,Australia/Darwin,8219824,5000
260e:81ea:8000::,260e:81ea:bfff:ffff:ffff:ffff:ffff:ffff,260e:81ea:8000::,New York City,New York,US,40.71427,-74.00597,10001,America/New_York,5128581,5000
2a12:18e8::,2a12:18e8:3fff:ffff:ffff:ffff:ffff:ffff,2a12:18e8::,Amsterdam,North Holland,NL,52.37403,4.88969,1012,Europe/Amsterdam,2759794,5000
2a1d:6c3a:8000::,2a1d:6c3a:bfff:ffff:ffff:ffff:ffff:ffff,2a1d:6c3a:8000::,Amsterdam,North Holland,NL,52.37403,4.88969,1012,Europe/Amsterdam,2759794,5000
2409:852::,2409:852:3fff:ffff:ffff:ffff:ffff:ffff,0:130:11bd:b6db:5685:6a3b:6400:0,Santa Teresa,Northern Territory,AU,-24.1307,134.3733,0872,Australia/Darwin,8219824,5000
2a02:a451:7cda:100::,2a02:a451:7cdf:ffff:ffff:ffff:ffff:ffff,2a02:a451:4000::,Amersfoort,Utrecht,NL,52.155,5.3875,3811,Europe/Amsterdam,2759821,1000
2001:ee1:ee0f:5a00::,2001:ee1:ee0f:5aff:ffff:ffff:ffff:ffff,2001:ee1:c000::,Tuy Hòa,Phú Yên Province,VN,13.09546,109.32094,56150,Asia/Ho_Chi_Minh,1563281,500
2a0c:f0f9::,2a0c:f0f9:3fff:ffff:ffff:ffff:ffff:ffff,2a0c:f0f9::,Amsterdam,North Holland,NL,52.37403,4.88969,1012,Europe/Amsterdam,2759794,5000
2a15:58d6:4000::,2a15:58d6:7fff:ffff:ffff:ffff:ffff:ffff,2a15:58d6:4000::,Amsterdam,North Holland,NL,52.37403,4.88969,1012,Europe/Amsterdam,2759794,5000
2003:c6:df0f:8000::,2003:c6:df0f:88ff:ffff:ffff:ffff:ffff,2003:c6:c000::,Müllheim,Baden-Wurttemberg,DE,47.8082,7.63035,79379,Europe/Berlin,2867770,1000
2a0f:ff00:216:a00::,2a0f:ff00:216:aff:ffff:ffff:ffff:ffff,2a0f:ff00::,Rahden,North Rhine-Westphalia,DE,52.43367,8.61263,32369,Europe/Berlin,2850887,1000
2001:818:dd2e:a500::,2001:818:dd2e:a7ff:ffff:ffff:ffff:ffff,2001:818:c000::,Lisbon,Lisbon,PT,38.71667,-9.13333,1000-001,Europe/Lisbon,2267057,1000
2a01:e0a:cae:e900::,2a01:e0a:cae:efff:ffff:ffff:ffff:ffff,2a01:e0a::,Paris,Île-de-France,FR,48.85341,2.3488,75000,Europe/Paris,2988507,1000
2631:6321:c000::,2631:6321:ffff:ffff:ffff:ffff:ffff:ffff,2631:6321:c000::,New York City,New York,US,40.71427,-74.00597,10001,America/New_York,5128581,5000
240f:110:5d9a:100::,240f:110:5d9b:ffff:ffff:ffff:ffff:ffff,240f:110:4000::,Tokyo,Tokyo,JP,35.691,139.7679,101-0047,Asia/Tokyo,1850147,1000
2604:2d80:b512:3d00::,2604:2d80:b512:3eff:ffff:ffff:ffff:ffff,2604:2d80:8000::,Milton,Florida,US,30.63241,-87.03969,32570,America/Chicago,4164547,500
2608:faff:4000::,2608:faff:7fff:ffff:ffff:ffff:ffff:ffff,2608:faff:4000::,New York City,New York,US,40.71427,-74.00597,10001,America/New_York,5128581,5000
240f:aeb2:c000::,240f:aeb2:ffff:ffff:ffff:ffff:ffff:ffff,240f:aeb2:c000::,Santa Teresa,Northern Territory,AU,-24.1307,134.3733,0872,Australia/Darwin,8219824,5000
2001:9e8:c8bc:fd00::,2001:9e8:c8bc:fdff:ffff:ffff:ffff:ffff,2001:9e8:c000::,Dinslaken,North Rhine-Westphalia,DE,51.56227,6.7434,46535,Europe/Berlin,2936871,1000
2a08:ad42:8000::,2a08:ad42:bfff:ffff:ffff:ffff:ffff:ffff,2a08:ad42:8000::,Amsterdam,North Holland,NL,52.37403,4.88969,1012,Europe/Amsterdam,2759794,5000
2608:db15:8000::,2608:db15:bfff:ffff:ffff:ffff:ffff:ffff,2608:db15:8000::,New York City,New York,US,40.71427,-74.00597,10001,America/New_York,5128581,5000
2a01:cb15:82e1:4a00::,2a01:cb15:82e1:4fff:ffff:ffff:ffff:ffff,2a01:cb15:8000::,Paris,Île-de-France,FR,48.86485,2.33355,75008,Europe/Paris,2988507,1000
2608:6609:c000::,2608:6609:ffff:ffff:ffff:ffff:ffff:ffff,2608:6609:c000::,New York City,New York,US,40.71427,-74.00597,10001,America/New_York,5128581,5000
2603:cbca:4000::,2603:cbca:7fff:ffff:ffff:ffff:ffff:ffff,2603:cbca:4000::,New York City,New York,US,40.71427,-74.00597,10001,America/New_York,5128581,5000
2a01:cb19:a14:7100::,2a01:cb19:a14:73ff:ffff:ffff:ffff:ffff,2a01:cb19::,Paris,Île-de-France,FR,48.85341,2.3488,75000,Europe/Paris,2988507,5000
2a02:c7c:af6d:c00::,2a02:c7c:af6d:39ff:ffff:ffff:ffff:ffff,2a02:c7c:8000::,London,England,GB,51.50853,-0.12574,E1W,Europe/London,2643743,5000
2001:16b8:57b2:2c00::,2001:16b8:57b2:2cff:ffff:ffff:ffff:ffff,2001:16b8:4000::,Düsseldorf,North Rhine-Westphalia,DE,51.2561,6.7808,40468,Europe/Berlin,2934246,1000
2a01:c23:8a00:54af::,2a01:c23:8a00:54af:ffff:ffff:ffff:ffff,2a01:c23:8000::,Cece,Fejér,HU,46.77056,18.62826,7013,Europe/Budapest,3054547,500
2a0f:6c30:8000::,2a0f:6c30:bfff:ffff:ffff:ffff:ffff:ffff,2a0f:6c30:8000::,Amsterdam,North Holland,NL,52.37403,4.88969,1012,Europe/Amsterdam,2759794,5000
2602:9dd4:4000::,2602:9dd4:7fff:ffff:ffff:ffff:ffff:ffff,2602:9dd4:4000::,New York City,New York,US,40.71427,-74.00597,10001,America/New_York,5128581,5000
2a02:c7c:9898:7000::,2a02:c7c:9898:72ff:ffff:ffff:ffff:ffff,2a02:c7c:8000::,Sandbach,England,GB,53.14515,-2.36251,CW11,Europe/London,2638600,5000
2403:5b89::,2403:5b89:3fff:ffff:ffff:ffff:ffff:ffff,2403:5b89::,Santa Teresa,Northern Territory,AU,-24.1307,134.3733,0872,Australia/Darwin,8219824,5000
2400:2200:3ca:ee00::,2400:2200:3ca:efff:ffff:ffff:ffff:ffff,0:12e:f34a:7fa5:9427:6815:9800:0,Urayasu,Tokyo,JP,35.67056,139.88861,134-0083,Asia/Tokyo,1849186,1000
2400:2200:728:6800::,2400:2200:728:68ff:ffff:ffff:ffff:ffff,0:12e:f34a:7fa5:9427:6815:9800:0,Osaka,Ōsaka,JP,34.69379,135.50107,543-0062,Asia/Tokyo,1853909,1000
2804:1a81:4000::,2804:1a81:7fff:ffff:ffff:ffff:ffff:ffff,2804:1a81:4000::,Montevideo,Montevideo Department,UY,-34.90328,-56.18816,11100,America/Montevideo,3441575,5000
2a01:cb05:6cc:8700::,2a01:cb05:6cc:87ff:ffff:ffff:ffff:ffff,2a01:cb05::,Blonville-sur-Mer,Normandy,FR,49.33709,0.02709,14910,Europe/Paris,3032202,1000
263d:1c87::,263d:1c87:3fff:ffff:ffff:ffff:ffff:ffff,263d:1c87::,New York City,New York,US,40.71427,-74.00597,10001,America/New_York,5128581,5000
2402:3a80:1bc8:9f00::,2402:3a80:1bc8:9fff:ffff:ffff:ffff:ffff,2402:3a80::,Gurgaon,Haryana,IN,28.4601,77.02635,122004,Asia/Kolkata,1270642,1000
2a09:bac5:1cd:1300::,2a09:bac5:1cd:1336:ffff:ffff:ffff:ffff,2a09:bac5::,New York City,New York,US,40.71427,-74.00597,10001,America/New_York,5128581,5000
240d:88e4:8000::,240d:88e4:bfff:ffff:ffff:ffff:ffff:ffff,240d:88e4:8000::,Santa Teresa,Northern Territory,AU,-24.1307,134.3733,0872,Australia/Darwin,8219824,5000
2a02:a447:e26a::,2a02:a447:e26a:ff:ffff:ffff:ffff:ffff,2a02:a447:c000::,Zevenaar,Gelderland,NL,51.93,6.07083,6901,Europe/Amsterdam,2743949,5
2003:da:f48:4e00::,2003:da:f48:4eff:ffff:ffff:ffff:ffff,2003:da::,Dargun,Mecklenburg-Vorpommern,DE,53.9009,12.85014,17159,Europe/Berlin,2938924,1000
2804:4f90:2a8:e800::,2804:4f90:2a8:e8ff:ffff:ffff:ffff:ffff,2804:4f90::,Goiânia,Goiás,BR,-16.67861,-49.25389,74000-000,America/Sao_Paulo,3462377,5000
2a02:a46d:2535::,2a02:a46d:2535:ff:ffff:ffff:ffff:ffff,2a02:a46d::,Amsterdam,North Holland,NL,52.37403,4.88969,1012,Europe/Amsterdam,2759794,5000
2406:bc6b::,2406:bc6b:3fff:ffff:ffff:ffff:ffff:ffff,2406:bc6b::,Santa Teresa,Northern Territory,AU,-24.1307,134.3733,0872,Australia/Darwin,8219824,5000
280c:19fa:c000::,280c:19fa:ffff:ffff:ffff:ffff:ffff:ffff,280c:19fa:c000::,Montevideo,Montevideo Department,UY,-34.90328,-56.18816,11100,America/Montevideo,3441575,5000
2602:2c52:8000::,2602:2c52:bfff:ffff:ffff:ffff:ffff:ffff,2602:2c52:8000::,New York City,New York,US,40.71427,-74.00597,10001,America/New_York,5128581,5000
2a1e:4760:c000::,2a1e:4760:ffff:ffff:ffff:ffff:ffff:ffff,2a1e:4760:c000::,Amsterdam,North Holland,NL,52.37403,4.88969,1012,Europe/Amsterdam,2759794,5000
