start_ip,end_ip,join_key,city,region,country,latitude,longitude,postal_code,timezone,geoname_id,radius
2801:e038:c000::,2801:e038:ffff:ffff:ffff:ffff:ffff:ffff,2801:e038:c000::,Montevideo,Montevideo Department,UY,-34.90328,-56.18816,11100,America/Montevideo,3441575,5000
2a02:ae71::,2a02:ae71:3fff:ffff:ffff:ffff:ffff:ffff,2a02:ae71::,Amsterdam,North Holland,NL,52.37403,4.88969,1012,Europe/Amsterdam,2759794,5000
2409:408c:8212:3200::,2409:408c:8212:32ff:ffff:ffff:ffff:ffff,2409:408c:8000::,Arni,Tamil Nadu,IN,12.66771,79.28529,632315,Asia/Kolkata,1278454,1000
2a02:c7c:d68e:2400::,2a02:c7c:d68e:24ff:ffff:ffff:ffff:ffff,2a02:c7c:c000::,Hedge End,England,GB,50.91234,-1.30076,SO30,Europe/London,6620360,50
2003:ee:1fff:35e0::,2003:ee:1fff:35e0:ffff:ffff:ffff:ffff,2003:ee::,Frankfurt am Main,Hesse,DE,50.11552,8.68417,60306,Europe/Berlin,2925533,500
2a1f:4f07::,2a1f:4f07:3fff:ffff:ffff:ffff:ffff:ffff,2a1f:4f07::,Amsterdam,North Holland,NL,52.37403,4.88969,1012,Europe/Amsterdam,2759794,5000
260a:9867::,260a:9867:3fff:ffff:ffff:ffff:ffff:ffff,260a:9867::,New York City,New York,US,40.71427,-74.00597,10004,America/New_York,5128581,5000
2631:c728:8000::,2631:c728:bfff:ffff:ffff:ffff:ffff:ffff,2631:c728:8000::,New York City,New York,US,40.71427,-74.00597,10004,America/New_York,5128581,5000
2602:17ed:8000::,2602:17ed:bfff:ffff:ffff:ffff:ffff:ffff,2602:17ed:8000::,New York City,New York,US,40.71427,-74.00597,10004,America/New_York,5128581,5000
2409:4072:609:2000::,2409:4072:609:20ff:ffff:ffff:ffff:ffff,0:130:1c25:3c61:1baf:728:7800:0,Cuddalore,Tamil Nadu,IN,11.75617,79.76693,607001,Asia/Kolkata,1273802,100
280e:513f:8000::,280e:513f:bfff:ffff:ffff:ffff:ffff:ffff,280e:513f:8000::,Montevideo,Montevideo Department,UY,-34.90328,-56.18816,11100,America/Montevideo,3441575,5000
2001:268:986a:5700::,2001:268:986a:57ff:ffff:ffff:ffff:ffff,0:fc:90aa:6740:f205:2bca:5000:0,Miura,Kanagawa,JP,35.1516,139.6321,238-0223,Asia/Tokyo,1907309,200
2a02:26f7:f6c4:a3b8::,2a02:26f7:f6c4:a3b8:ffff:ffff:ffff:ffff,2a02:26f7:c000::,Creedmoor,North Carolina,US,36.12237,-78.68611,27522,America/New_York,4462446,200
2606:201b:4000::,2606:201b:7fff:ffff:ffff:ffff:ffff:ffff,2606:201b:4000::,New York City,New York,US,40.71427,-74.00597,10004,America/New_York,5128581,5000
2601:282:117f:fc00::,2601:282:117f:fdff:ffff:ffff:ffff:ffff,0:148:4bc0:ff58:7d2:e9ee:ea00:0,Denver,Colorado,US,39.73915,-104.9847,80203,America/Denver,5419384,500
2608:8c03:8000::,2608:8c03:bfff:ffff:ffff:ffff:ffff:ffff,2608:8c03:8000::,New York City,New York,US,40.71427,-74.00597,10004,America/New_York,5128581,5000
2a00:1110:131:5800::,2a00:1110:131:5dff:ffff:ffff:ffff:ffff,2a00:1110::,Budapest,Budapest,HU,47.49835,19.04045,1007,Europe/Budapest,3054643,500
240e:b03e:c000::,240e:b03e:ffff:ffff:ffff:ffff:ffff:ffff,240e:b03e:c000::,Brisbane,Queensland,AU,-27.46794,153.02809,4000,Australia/Brisbane,2174003,5000
2003:f4:970e:4e00::,2003:f4:970e:4eff:ffff:ffff:ffff:ffff,2003:f4:8000::,Auerbach,Saxony,DE,50.4924,12.4171,08209,Europe/Berlin,2954602,5
260a:5ef7::,260a:5ef7:3fff:ffff:ffff:ffff:ffff:ffff,260a:5ef7::,New York City,New York,US,40.71427,-74.00597,10004,America/New_York,5128581,5000
2605:b100:34f:9100::,2605:b100:34f:91ff:ffff:ffff:ffff:ffff,2605:b100::,Neustadt,Ontario,CA,44.08339,-80.99973,N4N,America/Toronto,6087315,50
2604:6000:702:5e::,2604:6000:702:5f:ffff:ffff:ffff:ffff,0:148:bf2a:3c0b:df57:34bc:3000:0,Englewood,Colorado,US,39.6123,-104.8799,80111,America/Denver,5421250,5000
260a:bb24:4000::,260a:bb24:7fff:ffff:ffff:ffff:ffff:ffff,260a:bb24:4000::,New York City,New York,US,40.71427,-74.00597,10004,America/New_York,5128581,5000
2401:4900:338a:e00::,2401:4900:338a:eff:ffff:ffff:ffff:ffff,0:12f:1c53:b141:1b65:c4b4:b400:0,Eral,Tamil Nadu,IN,8.62584,78.02282,628801,Asia/Kolkata,1272027,500
240e:d399::,240e:d399:3fff:ffff:ffff:ffff:ffff:ffff,240e:d399::,Brisbane,Queensland,AU,-27.46794,153.02809,4000,Australia/Brisbane,2174003,5000
2409:4063:4e0f:e00::,2409:4063:4e0f:eff:ffff:ffff:ffff:ffff,0:130:1c1e:1f42:2c89:57f9:a900:0,Kanpur,Uttar Pradesh,IN,26.5167,80.3155,208004,Asia/Kolkata,1267995,500
2a09:bac1:76c0:1209::,2a09:bac1:76c0:120f:ffff:ffff:ffff:ffff,2a09:bac1:4000::,Columbus,Ohio,US,39.96118,-82.99879,43215,America/New_York,4509177,500
2804:734:9083:2500::,2804:734:9090:41ff:ffff:ffff:ffff:ffff,0:161:ec80:3034:7e8c:aace:9200:0,Caeté,Minas Gerais,BR,-19.88,-43.66972,34800-000,America/Sao_Paulo,3468327,5000
263b:c5fe:c000::,263b:c5fe:ffff:ffff:ffff:ffff:ffff:ffff,263b:c5fe:c000::,New York City,New York,US,40.71427,-74.00597,10004,America/New_York,5128581,5000
2803:165c:4000::,2803:165c:7fff:ffff:ffff:ffff:ffff:ffff,2803:165c:4000::,Montevideo,Montevideo Department,UY,-34.90328,-56.18816,11100,America/Montevideo,3441575,5000
2001:e60:925d:6000::,2001:e60:925d:60ff:ffff:ffff:ffff:ffff,2001:e60:8000::,Seoul,Seoul,KR,37.6047,127.0912,02075,Asia/Seoul,1835848,5
2636:6919:8000::,2636:6919:bfff:ffff:ffff:ffff:ffff:ffff,0:14c:cc1c:df0d:8d98:3442:db00:0,New York City,New York,US,40.71427,-74.00597,10004,America/New_York,5128581,5000
2a13:8525:c000::,2a13:8525:ffff:ffff:ffff:ffff:ffff:ffff,2a13:8525:c000::,Amsterdam,North Holland,NL,52.37403,4.88969,1012,Europe/Amsterdam,2759794,5000
2a02:2f0d:d702:3600::,2a02:2f0d:d702:36ff:ffff:ffff:ffff:ffff,2a02:2f0d:c000::,Târgovişte,Dâmbovița,RO,44.92543,25.4567,130002,Europe/Bucharest,665024,500
2600:1:c6ca:2000::,2600:1:c6ca:20ff:ffff:ffff:ffff:ffff,2600:1:c000::,Faysville,Texas,US,26.41035,-98.13529,78542,America/Chicago,4690296,50
2806:1f15:c000::,2806:1f15:ffff:ffff:ffff:ffff:ffff:ffff,2806:1f15:c000::,Montevideo,Montevideo Department,UY,-34.90328,-56.18816,11100,America/Montevideo,3441575,5000
2609:181f:c000::,2609:181f:ffff:ffff:ffff:ffff:ffff:ffff,2609:181f:c000::,New York City,New York,US,40.71427,-74.00597,10004,America/New_York,5128581,5000
2a12:23f1:4000::,2a12:23f1:7fff:ffff:ffff:ffff:ffff:ffff,2a12:23f1:4000::,Amsterdam,North Holland,NL,52.37403,4.88969,1012,Europe/Amsterdam,2759794,5000
2409:56cb:c000::,2409:56cb:ffff:ffff:ffff:ffff:ffff:ffff,2409:56cb:c000::,Brisbane,Queensland,AU,-27.46794,153.02809,4000,Australia/Brisbane,2174003,5000
2809:c664:8000::,2809:c664:bfff:ffff:ffff:ffff:ffff:ffff,2809:c664:8000::,Montevideo,Montevideo Department,UY,-34.90328,-56.18816,11100,America/Montevideo,3441575,5000
2401:6701:4000::,2401:6701:7fff:ffff:ffff:ffff:ffff:ffff,0:12f:2225:c68a:c864:fda2:3700:0,Canberra,Australian Capital Territory,AU,-35.28346,149.12807,2600,Australia/Sydney,2172517,5000
2a01:c22:8d67:100::,2a01:c22:8d67:5dff:ffff:ffff:ffff:ffff,2a01:c22:8000::,Munich,Bavaria,DE,48.1776,11.5169,80992,Europe/Berlin,2867714,5000
2630:bda2::,2630:bda2:3fff:ffff:ffff:ffff:ffff:ffff,2630:bda2::,New York City,New York,US,40.71427,-74.00597,10004,America/New_York,5128581,5000
2409:4064:413:4c00::,2409:4064:413:50ff:ffff:ffff:ffff:ffff,0:130:1c1e:9e50:3d38:9fbb:7000:0,Bokāro,Jharkhand,IN,23.66934,86.15161,827012,Asia/Kolkata,1275362,500
2001:a62:370:3000::,2001:a62:370:30ff:ffff:ffff:ffff:ffff,2001:a62::,Bad Soden-Salmünster,Hesse,DE,50.27574,9.36705,63628,Europe/Berlin,2953338,50
280e:9cb4:4000::,280e:9cb4:7fff:ffff:ffff:ffff:ffff:ffff,280e:9cb4:4000::,Montevideo,Montevideo Department,UY,-34.90328,-56.18816,11100,America/Montevideo,3441575,5000
240d:e839::,240d:e839:3fff:ffff:ffff:ffff:ffff:ffff,240d:e839::,Brisbane,Queensland,AU,-27.46794,153.02809,4000,Australia/Brisbane,2174003,5000
2a11:addb:4000::,2a11:addb:7fff:ffff:ffff:ffff:ffff:ffff,2a11:addb:4000::,Amsterdam,North Holland,NL,52.37403,4.88969,1012,Europe/Amsterdam,2759794,5000
2600:1:b261:b100::,2600:1:b261:b5ff:ffff:ffff:ffff:ffff,0:148:2a89:6a51:59ee:10f:d500:0,Phoenix,Arizona,US,33.4061,-112.0265,85040,America/Phoenix,5308655,5000
2a06:1b98:c000::,2a06:1b98:ffff:ffff:ffff:ffff:ffff:ffff,2a06:1b98:c000::,Amsterdam,North Holland,NL,52.37403,4.88969,1012,Europe/Amsterdam,2759794,5000
2409:4081:21e:3300::,2409:4081:21e:33ff:ffff:ffff:ffff:ffff,0:130:1c2c:ae34:15f4:3b83:2100:0,Vaijāpur,Maharashtra,IN,19.92672,74.7275,423701,Asia/Kolkata,1253545,5
280e:fa4:4000::,280e:fa4:7fff:ffff:ffff:ffff:ffff:ffff,280e:fa4:4000::,Montevideo,Montevideo Department,UY,-34.90328,-56.18816,11100,America/Montevideo,3441575,5000
2408:1770:c000::,2408:1770:ffff:ffff:ffff:ffff:ffff:ffff,2408:1770:c000::,Brisbane,Queensland,AU,-27.46794,153.02809,4000,Australia/Brisbane,2174003,5000
2a06:925a:c000::,2a06:925a:ffff:ffff:ffff:ffff:ffff:ffff,2a06:925a:c000::,Amsterdam,North Holland,NL,52.37403,4.88969,1012,Europe/Amsterdam,2759794,5000
2a02:26f7:f6f2:a12b::,2a02:26f7:f6f2:a12b:ffff:ffff:ffff:ffff,2a02:26f7:c000::,Ponte Vedra Beach,Florida,US,30.1223,-81.3627,32082,America/New_York,4169060,200
2406:cf7c::,2406:cf7c:3fff:ffff:ffff:ffff:ffff:ffff,2406:cf7c::,Brisbane,Queensland,AU,-27.46794,153.02809,4000,Australia/Brisbane,2174003,5000
2605:b1f3:c000::,2605:b1f3:ffff:ffff:ffff:ffff:ffff:ffff,2605:b1f3:c000::,New York City,New York,US,40.71427,-74.00597,10004,America/New_York,5128581,5000
260a:5d7d:4000::,260a:5d7d:7fff:ffff:ffff:ffff:ffff:ffff,260a:5d7d:4000::,New York City,New York,US,40.71427,-74.00597,10004,America/New_York,5128581,5000
2a17:70b0:c000::,2a17:70b0:ffff:ffff:ffff:ffff:ffff:ffff,2a17:70b0:c000::,Amsterdam,North Holland,NL,52.37403,4.88969,1012,Europe/Amsterdam,2759794,5000
280f:d95c:c000::,280f:d95c:ffff:ffff:ffff:ffff:ffff:ffff,280f:d95c:c000::,Montevideo,Montevideo Department,UY,-34.90328,-56.18816,11100,America/Montevideo,3441575,5000
240e:50a5:c000::,240e:50a5:ffff:ffff:ffff:ffff:ffff:ffff,240e:50a5:c000::,Brisbane,Queensland,AU,-27.46794,153.02809,4000,Australia/Brisbane,2174003,5000
2001:268:9693:fa00::,2001:268:9693:faff:ffff:ffff:ffff:ffff,0:fc:90aa:6740:f205:2bca:5000:0,Toyota,Aichi,JP,35.029,137.0687,473-0921,Asia/Tokyo,1849814,500
2809:cb02::,2809:cb02:3fff:ffff:ffff:ffff:ffff:ffff,2809:cb02::,Montevideo,Montevideo Department,UY,-34.90328,-56.18816,11100,America/Montevideo,3441575,5000
2405:204:a02a:f500::,2405:204:a02a:f5ff:ffff:ffff:ffff:ffff,0:12f:8e67:2374:10b9:b18f:5000:0,Handiā,Uttar Pradesh,IN,25.36379,82.18655,221503,Asia/Kolkata,1270437,100
2406:e003:1c13:d900::,2406:e003:1c13:ffff:ffff:ffff:ffff:ffff,2406:e003::,Auckland,Auckland,NZ,-36.84853,174.76349,1010,Pacific/Auckland,2193733,5000
280c:bde2::,280c:bde2:3fff:ffff:ffff:ffff:ffff:ffff,280c:bde2::,Montevideo,Montevideo Department,UY,-34.90328,-56.18816,11100,America/Montevideo,3441575,5000
2a13:38d8::,2a13:38d8:3fff:ffff:ffff:ffff:ffff:ffff,2a13:38d8::,Amsterdam,North Holland,NL,52.37403,4.88969,1012,Europe/Amsterdam,2759794,5000
2804:6194:1a70:100::,2804:6194:1a70:2dff:ffff:ffff:ffff:ffff,0:161:fe23:eec5:7ef8:5ca4:b200:0,Corumbá,Mato Grosso do Sul,BR,-19.00917,-57.65333,79300-000,America/Campo_Grande,3465342,5000
2632:403d:4000::,2632:403d:7fff:ffff:ffff:ffff:ffff:ffff,2632:403d:4000::,New York City,New York,US,40.71427,-74.00597,10004,America/New_York,5128581,5000
2001:16b8:2a95:200::,2001:16b8:2a95:2ff:ffff:ffff:ffff:ffff,2001:16b8::,Goldbach,Bavaria,DE,49.99951,9.1844,63773,Europe/Berlin,2919438,50
2400:2653:69e0:1800::,2400:2653:69e0:18ff:ffff:ffff:ffff:ffff,0:12e:f4c1:8ad4:d437:8dbf:5700:0,Tosashimizu,Kochi,JP,32.7809,132.9548,787-0305,Asia/Tokyo,11611481,10
2a00:23c6:a10f:9400::,2a00:23c6:a10f:94ff:ffff:ffff:ffff:ffff,2a00:23c6:8000::,Weybridge,England,GB,51.37178,-0.45975,KT13,Europe/London,2634204,500
2a02:8071:4593:100::,2a02:8071:4593:b7ff:ffff:ffff:ffff:ffff,2a02:8071:4000::,Düsseldorf,North Rhine-Westphalia,DE,51.2302,6.7135,40549,Europe/Berlin,2934246,5000
2409:408c:2703:6100::,2409:408c:2703:61ff:ffff:ffff:ffff:ffff,2409:408c::,Kāvali,Andhra Pradesh,IN,14.9163,79.99449,524203,Asia/Kolkata,1267394,10
2808:153c::,2808:153c:3fff:ffff:ffff:ffff:ffff:ffff,2808:153c::,Montevideo,Montevideo Department,UY,-34.90328,-56.18816,11100,America/Montevideo,3441575,5000
2409:4051:208a:9e00::,2409:4051:208a:9eff:ffff:ffff:ffff:ffff,0:130:1c13:dd74:d3b8:37aa:4300:0,Pānīpat,Haryana,IN,29.39727,76.99456,132104,Asia/Kolkata,1260476,200
2a09:bac5:9e0:400::,2a09:bac5:9e1:2ff:ffff:ffff:ffff:ffff,2a09:bac5::,San Francisco,California,US,37.7621,-122.3971,94107,America/Los_Angeles,5391959,5000
2804:3454:40a:100::,2804:3454:40a:ffff:ffff:ffff:ffff:ffff,0:161:f549:7533:dd8e:fd45:7e00:0,Eusébio,Ceará,BR,-3.89,-38.45056,61760-000,America/Fortaleza,3400558,5000
2409:4081:8884:7800::,2409:4081:8884:7bff:ffff:ffff:ffff:ffff,0:130:1c2d:579c:2c33:45da:d500:0,Vidisha,Madhya Pradesh,IN,23.52604,77.81092,464001,Asia/Kolkata,1253200,1000
2409:4053:2e95:7b00::,2409:4053:2e95:7bff:ffff:ffff:ffff:ffff,0:130:1c15:84f9:b55:d185:8500:0,Morādābād,Uttar Pradesh,IN,28.9369,78.71701,244504,Asia/Kolkata,1262801,500
2803:6e40:4000::,2803:6e40:7fff:ffff:ffff:ffff:ffff:ffff,2803:6e40:4000::,San Miguel de Tucumán,Tucuman,AR,-26.82414,-65.2226,4000,America/Argentina/Tucuman,3836873,5000
2409:4073:204:ab00::,2409:4073:204:abff:ffff:ffff:ffff:ffff,0:130:1c26:1023:377d:d416:1900:0,Naduvannūr,Kerala,IN,11.81022,75.97191,673580,Asia/Kolkata,1262285,500
2001:fd8:3496:7400::,2001:fd8:3496:74ff:ffff:ffff:ffff:ffff,2001:fd8::,Quezon City,Metro Manila,PH,14.6014,121.0365,0410,Asia/Manila,1692192,50
2409:408c:8411:5b00::,2409:408c:8411:5bff:ffff:ffff:ffff:ffff,2409:408c:8000::,Airoli,Maharashtra,IN,19.1167,72.9833,400701,Asia/Kolkata,7279599,5000
2409:4081:8717:3300::,2409:4081:8717:33ff:ffff:ffff:ffff:ffff,0:130:1c2d:579c:2c33:45da:d500:0,Mānpur,Madhya Pradesh,IN,22.43151,75.62107,453661,Asia/Kolkata,1263636,200
2409:4089:809b:c400::,2409:4089:809b:c7ff:ffff:ffff:ffff:ffff,0:130:1c33:f5ad:aa9:ad47:dd00:0,Prayagraj,Uttar Pradesh,IN,25.44478,81.84322,211002,Asia/Kolkata,1278994,500
2402:a331:8000::,2402:a331:bfff:ffff:ffff:ffff:ffff:ffff,2402:a331:8000::,Brisbane,Queensland,AU,-27.46794,153.02809,4000,Australia/Brisbane,2174003,5000
2636:4901:c000::,2636:4901:ffff:ffff:ffff:ffff:ffff:ffff,2636:4901:c000::,New York City,New York,US,40.71427,-74.00597,10004,America/New_York,5128581,5000
2409:4080:9492:9400::,2409:4080:9492:94ff:ffff:ffff:ffff:ffff,0:130:1c2c:83da:1064:78ed:3400:0,Mahesāna,Gujarat,IN,24.10883,72.88748,384130,Asia/Kolkata,1264389,100
2001:2d8:6a5b:be00::,2001:2d8:6a5b:beff:ffff:ffff:ffff:ffff,2001:2d8:4000::,Jeju City,Jeju-do,KR,33.4897,126.4788,63097,Asia/Seoul,1846266,50
2403:3e9:c000::,2403:3e9:ffff:ffff:ffff:ffff:ffff:ffff,2403:3e9:c000::,Brisbane,Queensland,AU,-27.46794,153.02809,4000,Australia/Brisbane,2174003,5000
2600:c451::,2600:c451:3fff:ffff:ffff:ffff:ffff:ffff,2600:c451::,New York City,New York,US,40.71427,-74.00597,10004,America/New_York,5128581,5000
2001:4430:5209:e400::,2001:4430:5209:e6ff:ffff:ffff:ffff:ffff,0:fc:9e1c:cc54:ff05:55f1:f800:0,Paripark,Seoul,KR,37.53497,126.87661,07960,Asia/Seoul,11952872,5000
260c:2bae::,260c:2bae:3fff:ffff:ffff:ffff:ffff:ffff,260c:2bae::,New York City,New York,US,40.71427,-74.00597,10004,America/New_York,5128581,5000
280c:becd::,280c:becd:3fff:ffff:ffff:ffff:ffff:ffff,280c:becd::,Montevideo,Montevideo Department,UY,-34.90328,-56.18816,11100,America/Montevideo,3441575,5000
2802:45df:8000::,2802:45df:bfff:ffff:ffff:ffff:ffff:ffff,2802:45df:8000::,Montevideo,Montevideo Department,UY,-34.90328,-56.18816,11100,America/Montevideo,3441575,5000
2404:7a87:40c0:8600::,2404:7a87:40c0:a7ff:ffff:ffff:ffff:ffff,2404:7a87:4000::,Tokyo,Tokyo,JP,35.691,139.7679,101-0047,Asia/Tokyo,1850147,5000
2a10:d871:c000::,2a10:d871:ffff:ffff:ffff:ffff:ffff:ffff,2a10:d871:c000::,Amsterdam,North Holland,NL,52.37403,4.88969,1012,Europe/Amsterdam,2759794,5000
2406:22c9:4000::,2406:22c9:7fff:ffff:ffff:ffff:ffff:ffff,2406:22c9:4000::,Brisbane,Queensland,AU,-27.46794,153.02809,4000,Australia/Brisbane,2174003,5000
263f:c45e:c000::,263f:c45e:ffff:ffff:ffff:ffff:ffff:ffff,263f:c45e:c000::,New York City,New York,US,40.71427,-74.00597,10004,America/New_York,5128581,5000
