start_ip,end_ip,join_key,city,region,country,latitude,longitude,postal_code,timezone,geoname_id,radius
2630:c1d3::,2630:c1d3:3fff:ffff:ffff:ffff:ffff:ffff,2630:c1d3::,Tysons Corner,Virginia,US,38.953,-77.2295,22102,America/New_York,4790534,5000
2a01:4c8:c83:c600::,2a01:4c8:c83:c6ff:ffff:ffff:ffff:ffff,2a01:4c8::,Holmfirth,England,GB,53.56968,-1.78777,HD9,Europe/London,2646716,200
2001:268:7272:9d00::,2001:268:7272:9dff:ffff:ffff:ffff:ffff,0:fc:90aa:128c:e6e5:a69e:7600:0,Tokyo,Tokyo,JP,35.6895,139.69171,101-8656,Asia/Tokyo,1850147,5000
263a:f8a1:4000::,263a:f8a1:7fff:ffff:ffff:ffff:ffff:ffff,263a:f8a1:4000::,New York City,New York,US,40.71427,-74.00597,10001,America/New_York,5128581,5000
2003:e5:e731:f300::,2003:e5:e731:f3ff:ffff:ffff:ffff:ffff,2003:e5:c000::,Kirchdorf,Baden-Wurttemberg,DE,48.07667,10.12629,88457,Europe/Berlin,2890617,1000
2409:3b8:4000::,2409:3b8:7fff:ffff:ffff:ffff:ffff:ffff,2409:3b8:4000::,Sydney,New South Wales,AU,-33.86785,151.20732,1001,Australia/Sydney,2147714,1000
2409:8a28:7131:5500::,2409:8a28:7131:62ff:ffff:ffff:ffff:ffff,2409:8a28:4000::,Jinrongjie,Beijing,CN,39.91222,116.35615,101100,Asia/Shanghai,8389504,5000
240c:b7e7:8000::,240c:b7e7:bfff:ffff:ffff:ffff:ffff:ffff,240c:b7e7:8000::,Sydney,New South Wales,AU,-33.86785,151.20732,1001,Australia/Sydney,2147714,1000
2a18:e0ab::,2a18:e0ab:3fff:ffff:ffff:ffff:ffff:ffff,2a18:e0ab::,Amsterdam,North Holland,NL,52.37403,4.88969,1012,Europe/Amsterdam,2759794,5000
2a01:cb0d:a88:9600::,2a01:cb0d:a88:96ff:ffff:ffff:ffff:ffff,2a01:cb0d::,Châtillon-sur-Broué,Grand Est,FR,48.54593,4.70301,51290,Europe/Paris,3026058,1000
2401:4900:4917:9a00::,2401:4900:4917:9aff:ffff:ffff:ffff:ffff,0:12f:1c54:5f5:2685:49e0:8e00:0,Thiruvananthapuram,Kerala,IN,8.4855,76.94924,695020,Asia/Kolkata,1254163,200
2804:2584:dffd:a900::,2804:2584:dffe:8ff:ffff:ffff:ffff:ffff,2804:2584:c000::,Foz do Iguaçu,Paraná,BR,-25.54778,-54.58806,85850-000,America/Sao_Paulo,3463030,5000
2409:4081:9203:f600::,2409:4081:9203:f6ff:ffff:ffff:ffff:ffff,0:130:1c2d:579c:2c33:45da:d500:0,Raigarh,Chhattisgarh,IN,21.89764,83.3966,496001,Asia/Kolkata,1259005,500
2003:d0:c71e:9c00::,2003:d0:c71e:9cff:ffff:ffff:ffff:ffff,2003:d0:c000::,Hamburg,Hamburg,DE,53.55073,9.99302,20038,Europe/Berlin,2911298,5000
2409:8060:10a8:100::,2409:8060:10af:ffff:ffff:ffff:ffff:ffff,0:130:2908:83a:4d3f:6cf8:8c00:0,Beijing,Beijing,CN,39.9075,116.39723,100000,Asia/Shanghai,1816670,5000
2a02:a445:977b:100::,2a02:a445:977b:ffff:ffff:ffff:ffff:ffff,2a02:a445:8000::,Amsterdam,North Holland,NL,52.37403,4.88969,1012,Europe/Amsterdam,2759794,5000
2003:6:3b7:fb00::,2003:6:3b7:fbff:ffff:ffff:ffff:ffff,0:fc:d070:a1ec:e26a:6b01:f600:0,Leer,Lower Saxony,DE,53.23157,7.461,26789,Europe/Berlin,2879697,1000
2003:e3:9731:7f00::,2003:e3:9731:7fff:ffff:ffff:ffff:ffff,2003:e3:8000::,Neuerburg,Rheinland-Pfalz,DE,50.00102,6.94828,54673,Europe/Berlin,2865508,1000
2a00:23c5:2064:7600::,2a00:23c5:2064:c5ff:ffff:ffff:ffff:ffff,2a00:23c5::,London,England,GB,51.50853,-0.12574,E1W,Europe/London,2643743,5000
2001:16b8:576a:6700::,2001:16b8:576a:67ff:ffff:ffff:ffff:ffff,2001:16b8:4000::,Erfurt,Thuringia,DE,50.9787,11.03283,99084,Europe/Berlin,2929670,1000
2003:da:bf4f:6400::,2003:da:bf4f:64ff:ffff:ffff:ffff:ffff,2003:da:8000::,Ergoldsbach,Bavaria,DE,48.69263,12.20442,84061,Europe/Berlin,2929649,1000
2003:d0:5f3c:1e00::,2003:d0:5f3c:1eff:ffff:ffff:ffff:ffff,2003:d0:4000::,Coburg,Bavaria,DE,50.25937,10.96384,96450,Europe/Berlin,2939951,1000
2a13:1cd0:c000::,2a13:1cd0:ffff:ffff:ffff:ffff:ffff:ffff,2a13:1cd0:c000::,Amsterdam,North Holland,NL,52.37403,4.88969,1012,Europe/Amsterdam,2759794,5000
2001:e68:6c72:2400::,2001:e68:6c72:2aff:ffff:ffff:ffff:ffff,2001:e68:4000::,Kuala Lumpur,Kuala Lumpur,MY,3.1412,101.68653,50050,Asia/Kuala_Lumpur,1735161,5000
2805:fc90:4000::,2805:fc90:7fff:ffff:ffff:ffff:ffff:ffff,2805:fc90:4000::,Montevideo,Montevideo Department,UY,-34.90328,-56.18816,11100,America/Montevideo,3441575,5000
2001:4dd4:41a3::,2001:4dd4:41a3:ff:ffff:ffff:ffff:ffff,2001:4dd4:4000::,Niederirsen,Rheinland-Pfalz,DE,50.75,7.6,57589,Europe/Berlin,2863239,1000
2409:40d4:1068:4800::,2409:40d4:1068:48ff:ffff:ffff:ffff:ffff,2409:40d4::,Bhīlwāra,Rajasthan,IN,25.34707,74.64081,311026,Asia/Kolkata,1275960,500
2003:d4:c73c:af00::,2003:d4:c73c:afff:ffff:ffff:ffff:ffff,2003:d4:c000::,Bremen,Bremen,DE,53.07582,8.80717,28195,Europe/Berlin,2944388,5000
2608:dd86:4000::,2608:dd86:7fff:ffff:ffff:ffff:ffff:ffff,2608:dd86:4000::,New York City,New York,US,40.71427,-74.00597,10001,America/New_York,5128581,5000
2809:e31:4000::,2809:e31:7fff:ffff:ffff:ffff:ffff:ffff,2809:e31:4000::,Montevideo,Montevideo Department,UY,-34.90328,-56.18816,11100,America/Montevideo,3441575,5000
2804:248:fa1d:8400::,2804:248:fa1d:84ff:ffff:ffff:ffff:ffff,2804:248:c000::,Fortaleza,Ceará,BR,-3.71722,-38.54306,60000-000,America/Fortaleza,3399415,1000
2003:ca:1708:7800::,2003:ca:1708:78ff:ffff:ffff:ffff:ffff,2003:ca::,Munich,Bavaria,DE,48.13743,11.57549,80331,Europe/Berlin,2867714,1000
2603:3024:151f:e100::,2603:3024:151f:e1ff:ffff:ffff:ffff:ffff,0:148:953c:bd2a:5d23:e7eb:8000:0,San Jose,California,US,37.33939,-121.89496,95103,America/Los_Angeles,5392171,5000
2a0f:387:34cf:6800::,2a0f:387:34cf:d6ff:ffff:ffff:ffff:ffff,2a0f:387::,Elektrostal’,Moscow Oblast,RU,55.78647,38.45713,144000,Europe/Moscow,563523,5000
240b:c020:4e4:300::,240b:c020:4e4:3ff:ffff:ffff:ffff:ffff,240b:c020::,Toyokawa,Aichi,JP,34.8203,137.3237,442-0845,Asia/Tokyo,1849845,500
2600:380:30b4:c700::,2600:380:30b4:c7ff:ffff:ffff:ffff:ffff,0:148:2bc2:4148:6ed8:5a85:7c00:0,Los Angeles,California,US,34.05223,-118.24368,90009,America/Los_Angeles,5368361,1000
2a14:3bed:8000::,2a14:3bed:bfff:ffff:ffff:ffff:ffff:ffff,2a14:3bed:8000::,Amsterdam,North Holland,NL,52.37403,4.88969,1012,Europe/Amsterdam,2759794,5000
2408:822a:8201:300::,2408:822a:8201:3ff:ffff:ffff:ffff:ffff,2408:822a:8000::,Jinrongjie,Beijing,CN,39.91222,116.35615,101100,Asia/Shanghai,8389504,5000
2409:40e3:1031:2b00::,2409:40e3:1031:2bff:ffff:ffff:ffff:ffff,2409:40e3::,Fyzābād,Uttar Pradesh,IN,26.77549,82.15018,224001,Asia/Kolkata,1271976,500
2601:5727:c000::,2601:5727:ffff:ffff:ffff:ffff:ffff:ffff,2601:5727:c000::,New York City,New York,US,40.71427,-74.00597,10001,America/New_York,5128581,5000
2a02:c7c:c36d:2800::,2a02:c7c:c36d:2aff:ffff:ffff:ffff:ffff,2a02:c7c:c000::,London,England,GB,51.50853,-0.12574,E1W,Europe/London,2643743,5000
2a02:2e02:3bb9:8c00::,2a02:2e02:3bb9:8cff:ffff:ffff:ffff:ffff,2a02:2e02::,A Coruña,Galicia,ES,43.37135,-8.396,15001,Europe/Madrid,3119841,1000
2807:426b:8000::,2807:426b:bfff:ffff:ffff:ffff:ffff:ffff,2807:426b:8000::,Montevideo,Montevideo Department,UY,-34.90328,-56.18816,11100,America/Montevideo,3441575,5000
2003:d0:ff27:8b00::,2003:d0:ff27:8bff:ffff:ffff:ffff:ffff,2003:d0:c000::,Emskirchen,Bavaria,DE,49.55282,10.71278,91448,Europe/Berlin,2930432,1000
240f:c4:f79b:100::,240f:c4:f79b:ffff:ffff:ffff:ffff:ffff,240f:c4:c000::,Nihonbashi-bakurochō,Tokyo,JP,35.691,139.7679,101-0047,Asia/Tokyo,10963047,5000
2637:e046::,2637:e046:3fff:ffff:ffff:ffff:ffff:ffff,2637:e046::,New York City,New York,US,40.71427,-74.00597,10001,America/New_York,5128581,5000
2409:408d:4e99:9800::,2409:408d:4e99:98ff:ffff:ffff:ffff:ffff,2409:408d:4000::,Coimbatore,Tamil Nadu,IN,11.00555,76.96612,641011,Asia/Kolkata,1273865,1000
2a00:23a8:94f:5d00::,2a00:23a8:94f:5dff:ffff:ffff:ffff:ffff,2a00:23a8::,Haddington,Scotland,GB,55.95612,-2.78332,EH41,Europe/London,2647686,1000
2408:d692:8000::,2408:d692:bfff:ffff:ffff:ffff:ffff:ffff,2408:d692:8000::,Sydney,New South Wales,AU,-33.86785,151.20732,1001,Australia/Sydney,2147714,1000
2635:27ef:c000::,2635:27ef:ffff:ffff:ffff:ffff:ffff:ffff,2635:27ef:c000::,New York City,New York,US,40.71427,-74.00597,10001,America/New_York,5128581,5000
2003:f0:9f23:8700::,2003:f0:9f23:87ff:ffff:ffff:ffff:ffff,2003:f0:8000::,Bremen,Bremen,DE,53.07582,8.80717,28195,Europe/Berlin,2944388,5000
2409:4089:1316:2800::,2409:4089:1316:28ff:ffff:ffff:ffff:ffff,0:130:1c33:4c44:f46a:a2f0:2900:0,Soro,Odisha,IN,21.27851,86.68833,756045,Asia/Kolkata,1255705,200
2a05:581d::,2a05:581d:3fff:ffff:ffff:ffff:ffff:ffff,2a05:581d::,Amsterdam,North Holland,NL,52.37403,4.88969,1012,Europe/Amsterdam,2759794,5000
2a1a:5c2a:4000::,2a1a:5c2a:7fff:ffff:ffff:ffff:ffff:ffff,2a1a:5c2a:4000::,Amsterdam,North Holland,NL,52.37403,4.88969,1012,Europe/Amsterdam,2759794,5000
2003:6:5380:f00::,2003:6:5380:fff:ffff:ffff:ffff:ffff,0:fc:d070:f6a0:ed89:f02d:d000:0,Postbauer-Heng,Bavaria,DE,49.30528,11.35722,92353,Europe/Berlin,3206934,1000
240f:34:226d:100::,240f:34:226e:ffff:ffff:ffff:ffff:ffff,240f:34::,Nihonbashi-bakurochō,Tokyo,JP,35.691,139.7679,101-0047,Asia/Tokyo,10963047,5000
2409:4089:1e05:ae00::,2409:4089:1e05:aeff:ffff:ffff:ffff:ffff,0:130:1c33:4c44:f46a:a2f0:2900:0,Brahmapur,Odisha,IN,19.31151,84.7929,761026,Asia/Kolkata,1275198,500
2402:800:3ed2:2000::,2402:800:3ed2:21ff:ffff:ffff:ffff:ffff,0:12f:2f64:ed9:fd80:b94f:4000:0,Hanoi,Hanoi,VN,21.0245,105.84117,10000,Asia/Bangkok,1581130,1000
2001:1308:1d9e:e700::,2001:1308:1d9e:ebff:ffff:ffff:ffff:ffff,0:fc:9406:269:d3e6:a6d0:ac00:0,Atlanta,Georgia,US,33.749,-84.38798,30302,America/New_York,4180439,5000
2a00:298b:8000::,2a00:298b:bfff:ffff:ffff:ffff:ffff:ffff,2a00:298b:8000::,Amsterdam,North Holland,NL,52.37403,4.88969,1012,Europe/Amsterdam,2759794,5000
2a06:dc63:8000::,2a06:dc63:bfff:ffff:ffff:ffff:ffff:ffff,2a06:dc63:8000::,Amsterdam,North Holland,NL,52.37403,4.88969,1012,Europe/Amsterdam,2759794,5000
260d:ef2b:8000::,260d:ef2b:bfff:ffff:ffff:ffff:ffff:ffff,260d:ef2b:8000::,New York City,New York,US,40.71427,-74.00597,10001,America/New_York,5128581,5000
240f:762f:c000::,240f:762f:ffff:ffff:ffff:ffff:ffff:ffff,240f:762f:c000::,Sydney,New South Wales,AU,-33.86785,151.20732,1001,Australia/Sydney,2147714,1000
2808:70b5:c000::,2808:70b5:ffff:ffff:ffff:ffff:ffff:ffff,2808:70b5:c000::,Montevideo,Montevideo Department,UY,-34.90328,-56.18816,11100,America/Montevideo,3441575,5000
2603:db87::,2603:db87:3fff:ffff:ffff:ffff:ffff:ffff,2603:db87::,New York City,New York,US,40.71427,-74.00597,10001,America/New_York,5128581,5000
2003:d2:a71d:b200::,2003:d2:a71d:b5ff:ffff:ffff:ffff:ffff,2003:d2:8000::,Zella-Mehlis,Thuringia,DE,50.65642,10.66046,98544,Europe/Berlin,2804867,1000
2003:c8:df22:6200::,2003:c8:df22:62ff:ffff:ffff:ffff:ffff,2003:c8:c000::,Bad Hersfeld,Hesse,DE,50.87197,9.70891,36251,Europe/Berlin,2953439,1000
2a15:889b:8000::,2a15:889b:bfff:ffff:ffff:ffff:ffff:ffff,2a15:889b:8000::,Amsterdam,North Holland,NL,52.37403,4.88969,1012,Europe/Amsterdam,2759794,5000
2001:4455:6b6:4800::,2001:4455:6b6:48ff:ffff:ffff:ffff:ffff,0:fc:9e31:2595:ab17:d3fa:d700:0,Zamboanga,Zamboanga Peninsula,PH,6.91028,122.07389,7302,Asia/Manila,1679432,1000
2401:d800:749:2a00::,2401:d800:749:2aff:ffff:ffff:ffff:ffff,2401:d800::,Ðà Lạt,Lâm Đồng Province,VN,11.94646,108.44193,66150,Asia/Ho_Chi_Minh,1584071,1000
2601:644:9101:5500::,2601:644:9101:62ff:ffff:ffff:ffff:ffff,0:148:4ced:193b:707f:bc4c:4800:0,Pleasant Hill,California,US,37.94798,-122.0608,94523,America/Los_Angeles,5383720,1000
2804:231f::,2804:231f:3fff:ffff:ffff:ffff:ffff:ffff,2804:231f::,Montevideo,Montevideo Department,UY,-34.90328,-56.18816,11100,America/Montevideo,3441575,5000
2405:204:91af:2800::,2405:204:91af:28ff:ffff:ffff:ffff:ffff,0:12f:8e67:2374:10b9:b18f:5000:0,Parbhani,Maharashtra,IN,19.26855,76.77081,431510,Asia/Kolkata,1260341,200
2600:5c01:3f49::,2600:5c01:3f49:ffff:ffff:ffff:ffff:ffff,2600:5c01::,Tallmadge,Ohio,US,41.10145,-81.44178,44278,America/New_York,5173623,5000
2409:408c:8792:8700::,2409:408c:8792:87ff:ffff:ffff:ffff:ffff,2409:408c:8000::,Bengaluru,Karnataka,IN,12.97194,77.59369,560002,Asia/Kolkata,1277333,1000
2003:cb:270d:b700::,2003:cb:270d:bbff:ffff:ffff:ffff:ffff,2003:cb::,Allensbach,Baden-Wurttemberg,DE,47.71536,9.07145,78476,Europe/Berlin,2958429,1000
2a18:1d0b:c000::,2a18:1d0b:ffff:ffff:ffff:ffff:ffff:ffff,2a18:1d0b:c000::,Amsterdam,North Holland,NL,52.37403,4.88969,1012,Europe/Amsterdam,2759794,5000
2401:4900:1d78:f00::,2401:4900:1d78:fff:ffff:ffff:ffff:ffff,0:12f:1c53:b141:1b65:c4b4:b400:0,Kalyān,Maharashtra,IN,19.2437,73.13554,412205,Asia/Kolkata,1268295,500
2a1f:aa48:8000::,2a1f:aa48:bfff:ffff:ffff:ffff:ffff:ffff,2a1f:aa48:8000::,Amsterdam,North Holland,NL,52.37403,4.88969,1012,Europe/Amsterdam,2759794,5000
2a00:23c5:51c1:3600::,2a00:23c5:51c1:36ff:ffff:ffff:ffff:ffff,2a00:23c5:4000::,Blackwood,Wales,GB,51.66778,-3.2075,NP12,Europe/London,3345317,1000
2a0a:a546:8557::,2a0a:a546:8557:ff:ffff:ffff:ffff:ffff,2a0a:a546:8000::,Niederkassel,North Rhine-Westphalia,DE,50.81503,7.03777,53859,Europe/Berlin,2863223,1000
263e:d725:4000::,263e:d725:7fff:ffff:ffff:ffff:ffff:ffff,263e:d725:4000::,New York City,New York,US,40.71427,-74.00597,10001,America/New_York,5128581,5000
2a0e:e28e::,2a0e:e28e:3fff:ffff:ffff:ffff:ffff:ffff,2a0e:e28e::,Amsterdam,North Holland,NL,52.37403,4.88969,1012,Europe/Amsterdam,2759794,5000
280c:5e8e:4000::,280c:5e8e:7fff:ffff:ffff:ffff:ffff:ffff,280c:5e8e:4000::,Montevideo,Montevideo Department,UY,-34.90328,-56.18816,11100,America/Montevideo,3441575,5000
2409:4089:295:2f00::,2409:4089:295:2fff:ffff:ffff:ffff:ffff,0:130:1c33:4c44:f46a:a2f0:2900:0,Nowrangapur,Odisha,IN,19.23114,82.54826,764059,Asia/Kolkata,1261162,200
2a0e:41d:2af6::,2a0e:41d:2af6:ff:ffff:ffff:ffff:ffff,2a0e:41d::,Castelvetrano,Sicily,IT,37.68081,12.79194,91022,Europe/Rome,2525083,1000
2a03:b580:aad6:5000::,2a03:b580:aad6:50ff:ffff:ffff:ffff:ffff,2a03:b580:8000::,Zarrentin,Mecklenburg-Vorpommern,DE,53.55075,10.9155,19246,Europe/Berlin,2805193,1000
2409:4064:4e37:f00::,2409:4064:4e37:10ff:ffff:ffff:ffff:ffff,0:130:1c1e:f304:4858:24e7:4a00:0,Patna,Bihar,IN,25.59408,85.13563,800001,Asia/Kolkata,1260086,200
2a14:3dc7:4000::,2a14:3dc7:7fff:ffff:ffff:ffff:ffff:ffff,2a14:3dc7:4000::,Frederiksberg,Capital Region,DK,55.6763,12.5424,1850,Europe/Copenhagen,2621942,5000
2600:1700:4818:b000::,2600:1700:4818:b0ff:ffff:ffff:ffff:ffff,0:148:3006:76db:dc48:88f7:7e00:0,Altadena,California,US,34.18973,-118.13118,91001,America/Los_Angeles,5323525,1000
2a11:bd8e:4000::,2a11:bd8e:7fff:ffff:ffff:ffff:ffff:ffff,2a11:bd8e:4000::,Amsterdam,North Holland,NL,52.37403,4.88969,1012,Europe/Amsterdam,2759794,5000
2001:a61:6185:9200::,2001:a61:6185:92ff:ffff:ffff:ffff:ffff,2001:a61:4000::,Kempten (Allgäu),Bavaria,DE,47.72674,10.31389,87435,Europe/Berlin,2891621,1000
2003:ef:ef13:1800::,2003:ef:ef13:18ff:ffff:ffff:ffff:ffff,2003:ef:c000::,Königstein,Saxony,DE,50.9157,14.07186,01824,Europe/Berlin,2885764,1000
263e:b6c9:c000::,263e:b6c9:ffff:ffff:ffff:ffff:ffff:ffff,263e:b6c9:c000::,New York City,New York,US,40.71427,-74.00597,10001,America/New_York,5128581,5000
2409:4070:2203:2d00::,2409:4070:2203:2dff:ffff:ffff:ffff:ffff,0:130:1c23:94dc:e411:6d4d:3600:0,Warangal,Telangana,IN,18,79.58333,506002,Asia/Kolkata,1252948,500
2001:4450:466b:ff00::,2001:4450:466b:ffff:ffff:ffff:ffff:ffff,0:fc:9e2d:577f:2b2d:5882:8c00:0,Mariveles,Central Luzon,PH,14.43385,120.48569,2105,Asia/Manila,1700868,1000
240f:57:907c:100::,240f:57:907c:ffff:ffff:ffff:ffff:ffff,240f:57:8000::,Tokyo,Tokyo,JP,35.6895,139.69171,101-8656,Asia/Tokyo,1850147,5000
2409:4060:118:7000::,2409:4060:118:71ff:ffff:ffff:ffff:ffff,0:130:1c1b:4f47:cdfd:6c04:ec00:0,Kolkata,West Bengal,IN,22.56263,88.36304,700006,Asia/Kolkata,1275004,10
2809:851:c000::,2809:851:ffff:ffff:ffff:ffff:ffff:ffff,2809:851:c000::,Montevideo,Montevideo Department,UY,-34.90328,-56.18816,11100,America/Montevideo,3441575,5000
2a02:c7c:8821:a300::,2a02:c7c:8821:a3ff:ffff:ffff:ffff:ffff,2a02:c7c:8000::,Thornbury,England,GB,51.60889,-2.52028,HR7,Europe/London,2636002,1000
